
[
  { "name": "Abadia dos Dourados", "normalizedName": "abadia dos dourados", "lat": -18.468, "lon": -47.405 },
  { "name": "Abaeté", "normalizedName": "abaete", "lat": -19.157, "lon": -45.445 },
  { "name": "Abre Campo", "normalizedName": "abre campo", "lat": -20.301, "lon": -42.478 },
  { "name": "Acaiaca", "normalizedName": "acaiaca", "lat": -20.359, "lon": -43.145 },
  { "name": "Açucena", "normalizedName": "acucena", "lat": -19.068, "lon": -42.543 },
  { "name": "Água Boa", "normalizedName": "agua boa", "lat": -17.997, "lon": -42.383 },
  { "name": "Água Comprida", "normalizedName": "agua comprida", "lat": -20.063, "lon": -48.11 },
  { "name": "Aguanil", "normalizedName": "aguanil", "lat": -20.941, "lon": -45.394 },
  { "name": "Águas Formosas", "normalizedName": "aguas formosas", "lat": -17.082, "lon": -40.835 },
  { "name": "Águas Vermelhas", "normalizedName": "aguas vermelhas", "lat": -15.746, "lon": -41.46 },
  { "name": "Aimorés", "normalizedName": "aimores", "lat": -19.497, "lon": -41.065 },
  { "name": "Aiuruoca", "normalizedName": "aiuruoca", "lat": -21.977, "lon": -44.603 },
  { "name": "Alagoa", "normalizedName": "alagoa", "lat": -22.171, "lon": -44.64 },
  { "name": "Albertina", "normalizedName": "albertina", "lat": -22.203, "lon": -46.616 },
  { "name": "Além Paraíba", "normalizedName": "alem paraiba", "lat": -21.888, "lon": -42.706 },
  { "name": "Alfenas", "normalizedName": "alfenas", "lat": -21.427, "lon": -45.946 },
  { "name": "Alfredo Vasconcelos", "normalizedName": "alfredo vasconcelos", "lat": -21.15, "lon": -43.778 },
  { "name": "Almenara", "normalizedName": "almenara", "lat": -16.183, "lon": -40.695 },
  { "name": "Alpercata", "normalizedName": "alpercata", "lat": -18.971, "lon": -41.972 },
  { "name": "Alpinópolis", "normalizedName": "alpinopolis", "lat": -20.865, "lon": -46.388 },
  { "name": "Alterosa", "normalizedName": "alterosa", "lat": -21.251, "lon": -46.141 },
  { "name": "Alto Caparaó", "normalizedName": "alto caparao", "lat": -20.428, "lon": -41.895 },
  { "name": "Alto Rio Doce", "normalizedName": "alto rio doce", "lat": -21.026, "lon": -43.407 },
  { "name": "Alvarenga", "normalizedName": "alvarenga", "lat": -19.418, "lon": -41.733 },
  { "name": "Alvinópolis", "normalizedName": "alvinopolis", "lat": -20.109, "lon": -43.056 },
  { "name": "Alvorada de Minas", "normalizedName": "alvorada de minas", "lat": -18.761, "lon": -43.376 },
  { "name": "Amparo do Serra", "normalizedName": "amparo do serra", "lat": -20.495, "lon": -42.805 },
  { "name": "Andradas", "normalizedName": "andradas", "lat": -22.068, "lon": -46.57 },
  { "name": "Cachoeira de Pajeú", "normalizedName": "cachoeira de pajeu", "lat": -15.768, "lon": -41.564 },
  { "name": "Andrelândia", "normalizedName": "andrelandia", "lat": -21.74, "lon": -44.309 },
  { "name": "Angelândia", "normalizedName": "angelandia", "lat": -17.702, "lon": -42.665 },
  { "name": "Antônio Carlos", "normalizedName": "antonio carlos", "lat": -21.319, "lon": -43.75 },
  { "name": "Antônio Dias", "normalizedName": "antonio dias", "lat": -19.658, "lon": -42.871 },
  { "name": "Antônio Prado de Minas", "normalizedName": "antonio prado de minas", "lat": -21.036, "lon": -42.106 },
  { "name": "Araçaí", "normalizedName": "aracai", "lat": -19.176, "lon": -44.25 },
  { "name": "Aracitaba", "normalizedName": "aracitaba", "lat": -21.326, "lon": -43.355 },
  { "name": "Araçuaí", "normalizedName": "aracuai", "lat": -16.85, "lon": -42.068 },
  { "name": "Araguari", "normalizedName": "araguari", "lat": -18.647, "lon": -48.194 },
  { "name": "Arantina", "normalizedName": "arantina", "lat": -21.91, "lon": -44.255 },
  { "name": "Araponga", "normalizedName": "araponga", "lat": -20.669, "lon": -42.521 },
  { "name": "Araporã", "normalizedName": "arapora", "lat": -18.438, "lon": -49.186 },
  { "name": "Arapuá", "normalizedName": "arapua", "lat": -19.036, "lon": -46.148 },
  { "name": "Araújos", "normalizedName": "araujos", "lat": -19.923, "lon": -45.163 },
  { "name": "Araxá", "normalizedName": "araxa", "lat": -19.593, "lon": -46.941 },
  { "name": "Arceburgo", "normalizedName": "arceburgo", "lat": -21.365, "lon": -46.94 },
  { "name": "Arcos", "normalizedName": "arcos", "lat": -20.291, "lon": -45.539 },
  { "name": "Areado", "normalizedName": "areado", "lat": -21.359, "lon": -46.145 },
  { "name": "Argirita", "normalizedName": "argirita", "lat": -21.605, "lon": -42.831 },
  { "name": "Aricanduva", "normalizedName": "aricanduva", "lat": -17.863, "lon": -42.557 },
  { "name": "Arinos", "normalizedName": "arinos", "lat": -15.918, "lon": -46.105 },
  { "name": "Astolfo Dutra", "normalizedName": "astolfo dutra", "lat": -21.311, "lon": -42.861 },
  { "name": "Ataléia", "normalizedName": "ataleia", "lat": -18.04, "lon": -41.118 },
  { "name": "Augusto de Lima", "normalizedName": "augusto de lima", "lat": -18.089, "lon": -44.258 },
  { "name": "Baependi", "normalizedName": "baependi", "lat": -21.956, "lon": -44.887 },
  { "name": "Baldim", "normalizedName": "baldim", "lat": -19.288, "lon": -43.953 },
  { "name": "Bambuí", "normalizedName": "bambui", "lat": -20.006, "lon": -45.978 },
  { "name": "Bandeira", "normalizedName": "bandeira", "lat": -15.882, "lon": -40.551 },
  { "name": "Bandeira do Sul", "normalizedName": "bandeira do sul", "lat": -21.724, "lon": -46.386 },
  { "name": "Barão de Cocais", "normalizedName": "barao de cocais", "lat": -19.944, "lon": -43.486 },
  { "name": "Barão de Monte Alto", "normalizedName": "barao de monte alto", "lat": -21.141, "lon": -42.179 },
  { "name": "Barbacena", "normalizedName": "barbacena", "lat": -21.225, "lon": -43.773 },
  { "name": "Barra Longa", "normalizedName": "barra longa", "lat": -20.28, "lon": -43.042 },
  { "name": "Barroso", "normalizedName": "barroso", "lat": -21.188, "lon": -43.975 },
  { "name": "Bela Vista de Minas", "normalizedName": "bela vista de minas", "lat": -19.827, "lon": -43.09 },
  { "name": "Belmiro Braga", "normalizedName": "belmiro braga", "lat": -21.921, "lon": -43.39 },
  { "name": "Belo Horizonte", "normalizedName": "belo horizonte", "lat": -19.916, "lon": -43.934 },
  { "name": "Belo Oriente", "normalizedName": "belo oriente", "lat": -19.222, "lon": -42.483 },
  { "name": "Belo Vale", "normalizedName": "belo vale", "lat": -20.407, "lon": -44.032 },
  { "name": "Berilo", "normalizedName": "berilo", "lat": -16.953, "lon": -42.473 },
  { "name": "Berizal", "normalizedName": "berizal", "lat": -15.632, "lon": -41.651 },
  { "name": "Bertópolis", "normalizedName": "bertopolis", "lat": -17.06, "lon": -40.598 },
  { "name": "Betim", "normalizedName": "betim", "lat": -19.967, "lon": -44.198 },
  { "name": "Bias Fortes", "normalizedName": "bias fortes", "lat": -21.611, "lon": -43.748 },
  { "name": "Bicas", "normalizedName": "bicas", "lat": -21.724, "lon": -43.056 },
  { "name": "Biquinhas", "normalizedName": "biquinhas", "lat": -18.775, "lon": -45.495 },
  { "name": "Boa Esperança", "normalizedName": "boa esperanca", "lat": -21.09, "lon": -45.566 },
  { "name": "Bocaina de Minas", "normalizedName": "bocaina de minas", "lat": -22.18, "lon": -44.382 },
  { "name": "Bocaiúva", "normalizedName": "bocaiuva", "lat": -17.112, "lon": -43.815 },
  { "name": "Bom Despacho", "normalizedName": "bom despacho", "lat": -19.736, "lon": -45.252 },
  { "name": "Bom Jardim de Minas", "normalizedName": "bom jardim de minas", "lat": -21.96, "lon": -44.184 },
  { "name": "Bom Jesus da Penha", "normalizedName": "bom jesus da penha", "lat": -21.026, "lon": -46.513 },
  { "name": "Bom Jesus do Amparo", "normalizedName": "bom jesus do amparo", "lat": -19.715, "lon": -43.47 },
  { "name": "Bom Jesus do Galho", "normalizedName": "bom jesus do galho", "lat": -19.827, "lon": -42.316 },
  { "name": "Bom Repouso", "normalizedName": "bom repouso", "lat": -22.463, "lon": -46.143 },
  { "name": "Bom Sucesso", "normalizedName": "bom sucesso", "lat": -21.034, "lon": -44.257 },
  { "name": "Bonfim", "normalizedName": "bonfim", "lat": -20.339, "lon": -44.24 },
  { "name": "Bonfinópolis de Minas", "normalizedName": "bonfinopolis de minas", "lat": -16.592, "lon": -46.015 },
  { "name": "Bonito de Minas", "normalizedName": "bonito de minas", "lat": -15.321, "lon": -44.825 },
  { "name": "Borda da Mata", "normalizedName": "borda da mata", "lat": -22.273, "lon": -46.166 },
  { "name": "Botelhos", "normalizedName": "botelhos", "lat": -21.64, "lon": -46.393 },
  { "name": "Botumirim", "normalizedName": "botumirim", "lat": -16.858, "lon": -43.013 },
  { "name": "Brasilândia de Minas", "normalizedName": "brasilandia de minas", "lat": -17.009, "lon": -45.92 },
  { "name": "Brasília de Minas", "normalizedName": "brasilia de minas", "lat": -16.206, "lon": -44.428 },
  { "name": "Brás Pires", "normalizedName": "bras pires", "lat": -20.892, "lon": -43.219 },
  { "name": "Braúnas", "normalizedName": "braunas", "lat": -19.102, "lon": -42.662 },
  { "name": "Brazópolis", "normalizedName": "brazopolis", "lat": -22.44, "lon": -45.6 },
  { "name": "Brumadinho", "normalizedName": "brumadinho", "lat": -20.143, "lon": -44.2 },
  { "name": "Bueno Brandão", "normalizedName": "bueno brandao", "lat": -22.443, "lon": -46.35 },
  { "name": "Buenópolis", "normalizedName": "buenopolis", "lat": -17.88, "lon": -44.183 },
  { "name": "Bugre", "normalizedName": "bugre", "lat": -19.414, "lon": -42.308 },
  { "name": "Buritis", "normalizedName": "buritis", "lat": -15.617, "lon": -46.423 },
  { "name": "Buritizeiro", "normalizedName": "buritizeiro", "lat": -17.35, "lon": -44.962 },
  { "name": "Cabeceira Grande", "normalizedName": "cabeceira grande", "lat": -16.255, "lon": -46.993 },
  { "name": "Cabo Verde", "normalizedName": "cabo verde", "lat": -21.477, "lon": -46.495 },
  { "name": "Cachoeira da Prata", "normalizedName": "cachoeira da prata", "lat": -19.469, "lon": -44.475 },
  { "name": "Cachoeira de Minas", "normalizedName": "cachoeira de minas", "lat": -22.348, "lon": -45.787 },
  { "name": "Cachoeira Dourada", "normalizedName": "cachoeira dourada", "lat": -18.49, "lon": -49.475 },
  { "name": "Caetanópolis", "normalizedName": "caetanopolis", "lat": -19.308, "lon": -44.417 },
  { "name": "Caeté", "normalizedName": "caete", "lat": -19.882, "lon": -43.666 },
  { "name": "Caiana", "normalizedName": "caiana", "lat": -20.697, "lon": -41.916 },
  { "name": "Cajuri", "normalizedName": "cajuri", "lat": -20.78, "lon": -42.986 },
  { "name": "Caldas", "normalizedName": "caldas", "lat": -21.925, "lon": -46.385 },
  { "name": "Camacho", "normalizedName": "camacho", "lat": -20.627, "lon": -45.17 },
  { "name": "Camanducaia", "normalizedName": "camanducaia", "lat": -22.755, "lon": -46.143 },
  { "name": "Cambuí", "normalizedName": "cambui", "lat": -22.612, "lon": -46.056 },
  { "name": "Cambuquira", "normalizedName": "cambuquira", "lat": -21.854, "lon": -45.295 },
  { "name": "Campanário", "normalizedName": "campanario", "lat": -18.257, "lon": -41.735 },
  { "name": "Campanha", "normalizedName": "campanha", "lat": -21.834, "lon": -45.4 },
  { "name": "Campestre", "normalizedName": "campestre", "lat": -21.785, "lon": -46.241 },
  { "name": "Campina Verde", "normalizedName": "campina verde", "lat": -19.535, "lon": -49.685 },
  { "name": "Campo Azul", "normalizedName": "campo azul", "lat": -16.505, "lon": -44.821 },
  { "name": "Campo Belo", "normalizedName": "campo belo", "lat": -20.897, "lon": -45.275 },
  { "name": "Campo do Meio", "normalizedName": "campo do meio", "lat": -21.11, "lon": -45.85 },
  { "name": "Campo Florido", "normalizedName": "campo florido", "lat": -19.761, "lon": -48.571 },
  { "name": "Campos Altos", "normalizedName": "campos altos", "lat": -19.695, "lon": -46.17 },
  { "name": "Campos Gerais", "normalizedName": "campos gerais", "lat": -21.235, "lon": -45.76 },
  { "name": "Canaã", "normalizedName": "canaa", "lat": -20.702, "lon": -42.616 },
  { "name": "Canápolis", "normalizedName": "canapolis", "lat": -18.718, "lon": -48.918 },
  { "name": "Cana Verde", "normalizedName": "cana verde", "lat": -21.018, "lon": -45.18 },
  { "name": "Candeias", "normalizedName": "candeias", "lat": -20.767, "lon": -45.275 },
  { "name": "Cantagalo", "normalizedName": "cantagalo", "lat": -18.508, "lon": -42.366 },
  { "name": "Caparaó", "normalizedName": "caparao", "lat": -20.536, "lon": -41.815 },
  { "name": "Capela Nova", "normalizedName": "capela nova", "lat": -20.915, "lon": -43.626 },
  { "name": "Capelinha", "normalizedName": "capelinha", "lat": -17.69, "lon": -42.513 },
  { "name": "Capetinga", "normalizedName": "capetinga", "lat": -20.627, "lon": -47.065 },
  { "name": "Capim Branco", "normalizedName": "capim branco", "lat": -19.531, "lon": -44.204 },
  { "name": "Capinópolis", "normalizedName": "capinopolis", "lat": -18.685, "lon": -49.57 },
  { "name": "Capitão Andrade", "normalizedName": "capitao andrade", "lat": -18.815, "lon": -41.81 },
  { "name": "Capitão Enéas", "normalizedName": "capitao eneas", "lat": -16.326, "lon": -43.708 },
  { "name": "Capitólio", "normalizedName": "capitolio", "lat": -20.615, "lon": -46.048 },
  { "name": "Caputira", "normalizedName": "caputira", "lat": -20.171, "lon": -42.268 },
  { "name": "Caraí", "normalizedName": "carai", "lat": -17.19, "lon": -41.691 },
  { "name": "Caranaíba", "normalizedName": "caranaiba", "lat": -20.87, "lon": -43.722 },
  { "name": "Carandaí", "normalizedName": "carandai", "lat": -20.956, "lon": -43.805 },
  { "name": "Carangola", "normalizedName": "carangola", "lat": -20.732, "lon": -42.029 },
  { "name": "Caratinga", "normalizedName": "caratinga", "lat": -19.789, "lon": -42.14 },
  { "name": "Carbonita", "normalizedName": "carbonita", "lat": -17.53, "lon": -43.018 },
  { "name": "Careaçu", "normalizedName": "careacu", "lat": -22.028, "lon": -45.7 },
  { "name": "Carlos Chagas", "normalizedName": "carlos chagas", "lat": -17.703, "lon": -40.771 },
  { "name": "Carmésia", "normalizedName": "carmesia", "lat": -19.088, "lon": -43.125 },
  { "name": "Carmo da Cachoeira", "normalizedName": "carmo da cachoeira", "lat": -21.469, "lon": -45.22 },
  { "name": "Carmo da Mata", "normalizedName": "carmo da mata", "lat": -20.559, "lon": -44.877 },
  { "name": "Carmo de Minas", "normalizedName": "carmo de minas", "lat": -22.115, "lon": -45.12 },
  { "name": "Carmo do Cajuru", "normalizedName": "carmo do cajuru", "lat": -20.186, "lon": -44.77 },
  { "name": "Carmo do Paranaíba", "normalizedName": "carmo do paranaiba", "lat": -19.001, "lon": -46.313 },
  { "name": "Carmo do Rio Claro", "normalizedName": "carmo do rio claro", "lat": -20.973, "lon": -46.12 },
  { "name": "Carmópolis de Minas", "normalizedName": "carmopolis de minas", "lat": -20.54, "lon": -44.636 },
  { "name": "Carneirinho", "normalizedName": "carneirinho", "lat": -19.691, "lon": -50.669 },
  { "name": "Carrancas", "normalizedName": "carrancas", "lat": -21.49, "lon": -44.643 },
  { "name": "Carvalhópolis", "normalizedName": "carvalhopolis", "lat": -21.782, "lon": -45.836 },
  { "name": "Carvalhos", "normalizedName": "carvalhos", "lat": -22.01, "lon": -44.461 },
  { "name": "Casa Grande", "normalizedName": "casa grande", "lat": -20.78, "lon": -43.918 },
  { "name": "Cascalho Rico", "normalizedName": "cascalho rico", "lat": -18.57, "lon": -47.882 },
  { "name": "Cássia", "normalizedName": "cassia", "lat": -20.584, "lon": -46.921 },
  { "name": "Conceição da Barra de Minas", "normalizedName": "conceicao da barra de minas", "lat": -21.135, "lon": -44.471 },
  { "name": "Cataguases", "normalizedName": "cataguases", "lat": -21.39, "lon": -42.697 },
  { "name": "Catas Altas", "normalizedName": "catas altas", "lat": -20.075, "lon": -43.405 },
  { "name": "Catas Altas da Noruega", "normalizedName": "catas altas da noruega", "lat": -20.686, "lon": -43.497 },
  { "name": "Catuji", "normalizedName": "catuji", "lat": -17.301, "lon": -41.516 },
  { "name": "Catuti", "normalizedName": "catuti", "lat": -15.352, "lon": -42.946 },
  { "name": "Caxambu", "normalizedName": "caxambu", "lat": -21.977, "lon": -44.931 },
  { "name": "Cedro do Abaeté", "normalizedName": "cedro do abaete", "lat": -19.141, "lon": -45.71 },
  { "name": "Central de Minas", "normalizedName": "central de minas", "lat": -18.73, "lon": -41.305 },
  { "name": "Centralina", "normalizedName": "centralina", "lat": -18.583, "lon": -49.205 },
  { "name": "Chácara", "normalizedName": "chacara", "lat": -21.688, "lon": -43.21 },
  { "name": "Chalé", "normalizedName": "chale", "lat": -20.05, "lon": -41.68 },
  { "name": "Chapada do Norte", "normalizedName": "chapada do norte", "lat": -17.108, "lon": -42.483 },
  { "name": "Chapada Gaúcha", "normalizedName": "chapada gaucha", "lat": -15.28, "lon": -45.565 },
  { "name": "Chiador", "normalizedName": "chiador", "lat": -21.996, "lon": -43.06 },
  { "name": "Cipotânea", "normalizedName": "cipotanea", "lat": -20.908, "lon": -43.366 },
  { "name": "Claraval", "normalizedName": "claraval", "lat": -20.395, "lon": -47.28 },
  { "name": "Claro dos Poções", "normalizedName": "claro dos pocoes", "lat": -17.078, "lon": -44.153 },
  { "name": "Cláudio", "normalizedName": "claudio", "lat": -20.438, "lon": -44.767 },
  { "name": "Coimbra", "normalizedName": "coimbra", "lat": -20.854, "lon": -42.797 },
  { "name": "Coluna", "normalizedName": "coluna", "lat": -18.235, "lon": -42.835 },
  { "name": "Comendador Gomes", "normalizedName": "comendador gomes", "lat": -19.69, "lon": -49.075 },
  { "name": "Comercinho", "normalizedName": "comercinho", "lat": -16.295, "lon": -41.791 },
  { "name": "Conceição da Aparecida", "normalizedName": "conceicao da aparecida", "lat": -21.09, "lon": -46.208 },
  { "name": "Conceição das Pedras", "normalizedName": "conceicao das pedras", "lat": -22.18, "lon": -45.46 },
  { "name": "Conceição das Alagoas", "normalizedName": "conceicao das alagoas", "lat": -19.914, "lon": -48.386 },
  { "name": "Conceição de Ipanema", "normalizedName": "conceicao de ipanema", "lat": -19.93, "lon": -41.92 },
  { "name": "Conceição do Mato Dentro", "normalizedName": "conceicao do mato dentro", "lat": -19.037, "lon": -43.424 },
  { "name": "Conceição do Pará", "normalizedName": "conceicao do para", "lat": -19.743, "lon": -44.887 },
  { "name": "Conceição do Rio Verde", "normalizedName": "conceicao do rio verde", "lat": -21.884, "lon": -45.088 },
  { "name": "Conceição dos Ouros", "normalizedName": "conceicao dos ouros", "lat": -22.42, "lon": -45.81 },
  { "name": "Cônego Marinho", "normalizedName": "conego marinho", "lat": -15.29, "lon": -44.425 },
  { "name": "Confins", "normalizedName": "confins", "lat": -19.63, "lon": -43.955 },
  { "name": "Congonhal", "normalizedName": "congonhal", "lat": -22.155, "lon": -46.038 },
  { "name": "Congonhas", "normalizedName": "congonhas", "lat": -20.5, "lon": -43.856 },
  { "name": "Congonhas do Norte", "normalizedName": "congonhas do norte", "lat": -18.84, "lon": -43.68 },
  { "name": "Conquista", "normalizedName": "conquista", "lat": -19.93, "lon": -47.545 },
  { "name": "Conselheiro Lafaiete", "normalizedName": "conselheiro lafaiete", "lat": -20.66, "lon": -43.786 },
  { "name": "Conselheiro Pena", "normalizedName": "conselheiro pena", "lat": -19.172, "lon": -41.472 },
  { "name": "Consolação", "normalizedName": "consolacao", "lat": -22.545, "lon": -45.92 },
  { "name": "Contagem", "normalizedName": "contagem", "lat": -19.931, "lon": -44.053 },
  { "name": "Coqueiral", "normalizedName": "coqueiral", "lat": -21.185, "lon": -45.435 },
  { "name": "Coração de Jesus", "normalizedName": "coracao de jesus", "lat": -16.685, "lon": -44.365 },
  { "name": "Cordisburgo", "normalizedName": "cordisburgo", "lat": -19.123, "lon": -44.321 },
  { "name": "Cordislândia", "normalizedName": "cordislandia", "lat": -21.78, "lon": -45.69 },
  { "name": "Corinto", "normalizedName": "corinto", "lat": -18.38, "lon": -44.455 },
  { "name": "Coroaci", "normalizedName": "coroaci", "lat": -18.608, "lon": -42.285 },
  { "name": "Coromandel", "normalizedName": "coromandel", "lat": -18.473, "lon": -47.2 },
  { "name": "Coronel Fabriciano", "normalizedName": "coronel fabriciano", "lat": -19.518, "lon": -42.628 },
  { "name": "Coronel Murta", "normalizedName": "coronel murta", "lat": -16.608, "lon": -42.18 },
  { "name": "Coronel Pacheco", "normalizedName": "coronel pacheco", "lat": -21.587, "lon": -43.262 },
  { "name": "Coronel Xavier Chaves", "normalizedName": "coronel xavier chaves", "lat": -21.026, "lon": -44.22 },
  { "name": "Córrego Danta", "normalizedName": "corrego danta", "lat": -19.81, "lon": -45.91 },
  { "name": "Córrego do Bom Jesus", "normalizedName": "corrego do bom jesus", "lat": -22.635, "lon": -46.216 },
  { "name": "Córrego Fundo", "normalizedName": "corrego fundo", "lat": -20.505, "lon": -45.545 },
  { "name": "Córrego Novo", "normalizedName": "corrego novo", "lat": -19.83, "lon": -42.42 },
  { "name": "Couto de Magalhães de Minas", "normalizedName": "couto de magalhaes de minas", "lat": -18.1, "lon": -43.46 },
  { "name": "Crisólita", "normalizedName": "crisolita", "lat": -17.25, "lon": -40.91 },
  { "name": "Cristais", "normalizedName": "cristais", "lat": -20.89, "lon": -45.52 },
  { "name": "Cristália", "normalizedName": "cristalia", "lat": -16.71, "lon": -42.87 },
  { "name": "Cristiano Otoni", "normalizedName": "cristiano otoni", "lat": -20.83, "lon": -43.8 },
  { "name": "Cristina", "normalizedName": "cristina", "lat": -22.21, "lon": -45.27 },
  { "name": "Crucilândia", "normalizedName": "crucilandia", "lat": -20.39, "lon": -44.33 },
  { "name": "Cruzeiro da Fortaleza", "normalizedName": "cruzeiro da fortaleza", "lat": -18.98, "lon": -46.67 },
  { "name": "Cruzília", "normalizedName": "cruzilia", "lat": -21.84, "lon": -44.81 },
  { "name": "Cuparaque", "normalizedName": "cuparaque", "lat": -18.98, "lon": -41.1 },
  { "name": "Curral de Dentro", "normalizedName": "curral de dentro", "lat": -15.93, "lon": -41.87 },
  { "name": "Curvelo", "normalizedName": "curvelo", "lat": -18.75, "lon": -44.43 },
  { "name": "Datas", "normalizedName": "datas", "lat": -18.47, "lon": -43.66 },
  { "name": "Delfim Moreira", "normalizedName": "delfim moreira", "lat": -22.5, "lon": -45.28 },
  { "name": "Delfinópolis", "normalizedName": "delfinopolis", "lat": -20.35, "lon": -46.82 },
  { "name": "Delta", "normalizedName": "delta", "lat": -19.97, "lon": -47.78 },
  { "name": "Descoberto", "normalizedName": "descoberto", "lat": -21.45, "lon": -42.97 },
  { "name": "Desterro de Entre Rios", "normalizedName": "desterro de entre rios", "lat": -20.65, "lon": -44.34 },
  { "name": "Desterro do Melo", "normalizedName": "desterro do melo", "lat": -21.13, "lon": -43.51 },
  { "name": "Diamantina", "normalizedName": "diamantina", "lat": -18.24, "lon": -43.6 },
  { "name": "Diogo de Vasconcelos", "normalizedName": "diogo de vasconcelos", "lat": -20.38, "lon": -43.2 },
  { "name": "Dionísio", "normalizedName": "dionisio", "lat": -19.83, "lon": -42.78 },
  { "name": "Divinésia", "normalizedName": "divinesia", "lat": -20.98, "lon": -43.14 },
  { "name": "Divino", "normalizedName": "divino", "lat": -20.6, "lon": -42.14 },
  { "name": "Divino das Laranjeiras", "normalizedName": "divino das laranjeiras", "lat": -18.78, "lon": -41.47 },
  { "name": "Divinolândia de Minas", "normalizedName": "divinolandia de minas", "lat": -18.78, "lon": -42.66 },
  { "name": "Divinópolis", "normalizedName": "divinopolis", "lat": -20.14, "lon": -44.88 },
  { "name": "Divisa Alegre", "normalizedName": "divisa alegre", "lat": -15.71, "lon": -41.22 },
  { "name": "Divisa Nova", "normalizedName": "divisa nova", "lat": -21.36, "lon": -46.18 },
  { "name": "Divisópolis", "normalizedName": "divisopolis", "lat": -15.72, "lon": -41 },
  { "name": "Dom Bosco", "normalizedName": "dom bosco", "lat": -16.66, "lon": -46.26 },
  { "name": "Dom Cavati", "normalizedName": "dom cavati", "lat": -19.37, "lon": -42.1 },
  { "name": "Dom Joaquim", "normalizedName": "dom joaquim", "lat": -18.96, "lon": -43.26 },
  { "name": "Dom Silvério", "normalizedName": "dom silverio", "lat": -20.15, "lon": -42.96 },
  { "name": "Dom Viçoso", "normalizedName": "dom vicoso", "lat": -22.27, "lon": -45.17 },
  { "name": "Dona Eusébia", "normalizedName": "dona eusebia", "lat": -21.31, "lon": -42.81 },
  { "name": "Dores de Campos", "normalizedName": "dores de campos", "lat": -21.11, "lon": -44.02 },
  { "name": "Dores de Guanhães", "normalizedName": "dores de guanhaes", "lat": -18.94, "lon": -42.92 },
  { "name": "Dores do Indaiá", "normalizedName": "dores do indaia", "lat": -19.46, "lon": -45.6 },
  { "name": "Dores do Turvo", "normalizedName": "dores do turvo", "lat": -20.97, "lon": -43.2 },
  { "name": "Doresópolis", "normalizedName": "doresopolis", "lat": -20.29, "lon": -45.92 },
  { "name": "Douradoquara", "normalizedName": "douradoquara", "lat": -18.42, "lon": -47.61 },
  { "name": "Durandé", "normalizedName": "durande", "lat": -20.2, "lon": -41.8 },
  { "name": "Elói Mendes", "normalizedName": "eloi mendes", "lat": -21.61, "lon": -45.56 },
  { "name": "Engenheiro Caldas", "normalizedName": "engenheiro caldas", "lat": -19.14, "lon": -42.02 },
  { "name": "Engenheiro Navarro", "normalizedName": "engenheiro navarro", "lat": -17.29, "lon": -43.95 },
  { "name": "Entre Folhas", "normalizedName": "entre folhas", "lat": -19.68, "lon": -42.19 },
  { "name": "Entre Rios de Minas", "normalizedName": "entre rios de minas", "lat": -20.67, "lon": -44.06 },
  { "name": "Ervália", "normalizedName": "ervalia", "lat": -20.83, "lon": -42.65 },
  { "name": "Esmeraldas", "normalizedName": "esmeraldas", "lat": -19.76, "lon": -44.31 },
  { "name": "Espera Feliz", "normalizedName": "espera feliz", "lat": -20.65, "lon": -41.9 },
  { "name": "Espinosa", "normalizedName": "espinosa", "lat": -14.92, "lon": -42.81 },
  { "name": "Espírito Santo do Dourado", "normalizedName": "espirito santo do dourado", "lat": -22.05, "lon": -45.93 },
  { "name": "Estiva", "normalizedName": "estiva", "lat": -22.46, "lon": -46.02 },
  { "name": "Estrela Dalva", "normalizedName": "estrela dalva", "lat": -21.72, "lon": -42.46 },
  { "name": "Estrela do Indaiá", "normalizedName": "estrela do indaia", "lat": -19.5, "lon": -45.82 },
  { "name": "Estrela do Sul", "normalizedName": "estrela do sul", "lat": -18.75, "lon": -47.69 },
  { "name": "Eugenópolis", "normalizedName": "eugenopolis", "lat": -21.1, "lon": -42.18 },
  { "name": "Ewbank da Câmara", "normalizedName": "ewbank da camara", "lat": -21.56, "lon": -43.51 },
  { "name": "Extrema", "normalizedName": "extrema", "lat": -22.85, "lon": -46.31 },
  { "name": "Fama", "normalizedName": "fama", "lat": -21.4, "lon": -45.83 },
  { "name": "Faria Lemos", "normalizedName": "faria lemos", "lat": -20.8, "lon": -42.01 },
  { "name": "Felício dos Santos", "normalizedName": "felicio dos santos", "lat": -18.26, "lon": -43.15 },
  { "name": "São Gonçalo do Rio Preto", "normalizedName": "sao goncalo do rio preto", "lat": -18, "lon": -43.38 },
  { "name": "Felisburgo", "normalizedName": "felisburgo", "lat": -16.63, "lon": -40.76 },
  { "name": "Felixlândia", "normalizedName": "felixlandia", "lat": -18.75, "lon": -44.89 },
  { "name": "Fernandes Tourinho", "normalizedName": "fernandes tourinho", "lat": -19.14, "lon": -42.17 },
  { "name": "Ferros", "normalizedName": "ferros", "lat": -19.23, "lon": -43.02 },
  { "name": "Fervedouro", "normalizedName": "fervedouro", "lat": -20.72, "lon": -42.27 },
  { "name": "Florestal", "normalizedName": "florestal", "lat": -19.88, "lon": -44.43 },
  { "name": "Formiga", "normalizedName": "formiga", "lat": -20.46, "lon": -45.42 },
  { "name": "Formoso", "normalizedName": "formoso", "lat": -15.06, "lon": -46.22 },
  { "name": "Fortaleza de Minas", "normalizedName": "fortaleza de minas", "lat": -20.82, "lon": -46.7 },
  { "name": "Fortuna de Minas", "normalizedName": "fortuna de minas", "lat": -19.56, "lon": -44.45 },
  { "name": "Francisco Badaró", "normalizedName": "francisco badaro", "lat": -17.06, "lon": -42.3 },
  { "name": "Francisco Dumont", "normalizedName": "francisco dumont", "lat": -17.3, "lon": -44.23 },
  { "name": "Francisco Sá", "normalizedName": "francisco sa", "lat": -16.47, "lon": -43.48 },
  { "name": "Franciscópolis", "normalizedName": "franciscopolis", "lat": -17.96, "lon": -42 },
  { "name": "Frei Gaspar", "normalizedName": "frei gaspar", "lat": -18.06, "lon": -41.42 },
  { "name": "Frei Inocêncio", "normalizedName": "frei inocencio", "lat": -18.55, "lon": -41.87 },
  { "name": "Frei Lagonegro", "normalizedName": "frei lagonegro", "lat": -18.17, "lon": -42.77 },
  { "name": "Fronteira", "normalizedName": "fronteira", "lat": -20.27, "lon": -49.2 },
  { "name": "Fronteira dos Vales", "normalizedName": "fronteira dos vales", "lat": -16.89, "lon": -40.91 },
  { "name": "Fruta de Leite", "normalizedName": "fruta de leite", "lat": -16.03, "lon": -42.51 },
  { "name": "Frutal", "normalizedName": "frutal", "lat": -20.02, "lon": -48.94 },
  { "name": "Funilândia", "normalizedName": "funilandia", "lat": -19.39, "lon": -44.15 },
  { "name": "Galiléia", "normalizedName": "galileia", "lat": -19, "lon": -41.53 },
  { "name": "Gameleiras", "normalizedName": "gameleiras", "lat": -15.1, "lon": -43.1 },
  { "name": "Glaucilândia", "normalizedName": "glaucilandia", "lat": -16.86, "lon": -44.02 },
  { "name": "Goiabeira", "normalizedName": "goiabeira", "lat": -18.99, "lon": -41.2 },
  { "name": "Goianá", "normalizedName": "goiana", "lat": -21.53, "lon": -43.2 },
  { "name": "Gonçalves", "normalizedName": "goncalves", "lat": -22.65, "lon": -45.85 },
  { "name": "Gonzaga", "normalizedName": "gonzaga", "lat": -18.82, "lon": -42.5 },
  { "name": "Gouveia", "normalizedName": "gouveia", "lat": -18.46, "lon": -43.75 },
  { "name": "Governador Valadares", "normalizedName": "governador valadares", "lat": -18.851, "lon": -41.949 },
  { "name": "Grão Mogol", "normalizedName": "grao mogol", "lat": -16.56, "lon": -42.89 },
  { "name": "Grupiara", "normalizedName": "grupiara", "lat": -18.3, "lon": -47.74 },
  { "name": "Guanhães", "normalizedName": "guanhaes", "lat": -18.77, "lon": -42.93 },
  { "name": "Guapé", "normalizedName": "guape", "lat": -20.77, "lon": -45.91 },
  { "name": "Guaraciaba", "normalizedName": "guaraciaba", "lat": -20.57, "lon": -43 },
  { "name": "Guaraciama", "normalizedName": "guaraciama", "lat": -17.03, "lon": -43.64 },
  { "name": "Guaranésia", "normalizedName": "guaranesia", "lat": -21.29, "lon": -46.81 },
  { "name": "Guarani", "normalizedName": "guarani", "lat": -21.36, "lon": -43.04 },
  { "name": "Guarará", "normalizedName": "guarara", "lat": -21.72, "lon": -43.02 },
  { "name": "Guarda-Mor", "normalizedName": "guarda-mor", "lat": -17.76, "lon": -47.1 },
  { "name": "Guaxupé", "normalizedName": "guaxupe", "lat": -21.3, "lon": -46.71 },
  { "name": "Guidoval", "normalizedName": "guidoval", "lat": -21.22, "lon": -42.81 },
  { "name": "Guimarânia", "normalizedName": "guimarania", "lat": -18.84, "lon": -46.79 },
  { "name": "Guiricema", "normalizedName": "guiricema", "lat": -21.05, "lon": -42.74 },
  { "name": "Gurinhatã", "normalizedName": "gurinhata", "lat": -18.91, "lon": -49.77 },
  { "name": "Heliodora", "normalizedName": "heliodora", "lat": -22.09, "lon": -45.56 },
  { "name": "Iapu", "normalizedName": "iapu", "lat": -19.46, "lon": -42.22 },
  { "name": "Ibertioga", "normalizedName": "ibertioga", "lat": -21.41, "lon": -43.98 },
  { "name": "Ibiá", "normalizedName": "ibia", "lat": -19.47, "lon": -46.54 },
  { "name": "Ibiaí", "normalizedName": "ibiai", "lat": -16.85, "lon": -44.85 },
  { "name": "Ibiracatu", "normalizedName": "ibiracatu", "lat": -15.65, "lon": -43.25 },
  { "name": "Ibiraci", "normalizedName": "ibiraci", "lat": -20.45, "lon": -47.12 },
  { "name": "Ibirité", "normalizedName": "ibirite", "lat": -20, "lon": -44.05 },
  { "name": "Ibitiúra de Minas", "normalizedName": "ibitiura de minas", "lat": -22.13, "lon": -46.46 },
  { "name": "Ibituruna", "normalizedName": "ibituruna", "lat": -21.11, "lon": -44.62 },
  { "name": "Icaraí de Minas", "normalizedName": "icarai de minas", "lat": -16.03, "lon": -45.03 },
  { "name": "Igarapé", "normalizedName": "igarape", "lat": -20.07, "lon": -44.3 },
  { "name": "Igaratinga", "normalizedName": "igaratinga", "lat": -19.95, "lon": -44.71 },
  { "name": "Iguatama", "normalizedName": "iguatama", "lat": -20.17, "lon": -45.71 },
  { "name": "Ijaci", "normalizedName": "ijaci", "lat": -21.17, "lon": -44.92 },
  { "name": "Ilicínea", "normalizedName": "ilicinea", "lat": -20.94, "lon": -45.82 },
  { "name": "Imbé de Minas", "normalizedName": "imbe de minas", "lat": -19.67, "lon": -42.06 },
  { "name": "Inconfidentes", "normalizedName": "inconfidentes", "lat": -22.31, "lon": -46.32 },
  { "name": "Indaiabira", "normalizedName": "indaiabira", "lat": -15.48, "lon": -42.2 },
  { "name": "Indianópolis", "normalizedName": "indianopolis", "lat": -19.03, "lon": -47.91 },
  { "name": "Ingaí", "normalizedName": "ingai", "lat": -21.21, "lon": -44.9 },
  { "name": "Inhapim", "normalizedName": "inhapim", "lat": -19.55, "lon": -42.12 },
  { "name": "Inhaúma", "normalizedName": "inhauma", "lat": -19.46, "lon": -44.37 },
  { "name": "Inimutaba", "normalizedName": "inimutaba", "lat": -18.73, "lon": -44.35 },
  { "name": "Ipaba", "normalizedName": "ipaba", "lat": -19.41, "lon": -42.42 },
  { "name": "Ipanema", "normalizedName": "ipanema", "lat": -19.8, "lon": -41.71 },
  { "name": "Ipatinga", "normalizedName": "ipatinga", "lat": -19.471, "lon": -42.53 },
  { "name": "Ipiaçu", "normalizedName": "ipiacu", "lat": -18.71, "lon": -49.95 },
  { "name": "Ipuiúna", "normalizedName": "ipuiuna", "lat": -22.06, "lon": -46.12 },
  { "name": "Iraí de Minas", "normalizedName": "irai de minas", "lat": -18.99, "lon": -47.45 },
  { "name": "Itabira", "normalizedName": "itabira", "lat": -19.61, "lon": -43.22 },
  { "name": "Itabirinha", "normalizedName": "itabirinha", "lat": -18.57, "lon": -41.25 },
  { "name": "Itabirito", "normalizedName": "itabirito", "lat": -20.25, "lon": -43.8 },
  { "name": "Itacambira", "normalizedName": "itacambira", "lat": -17.06, "lon": -43.3 },
  { "name": "Itacarambi", "normalizedName": "itacarambi", "lat": -15.1, "lon": -44.09 },
  { "name": "Itaguara", "normalizedName": "itaguara", "lat": -20.39, "lon": -44.48 },
  { "name": "Itaipé", "normalizedName": "itaipe", "lat": -17.41, "lon": -41.67 },
  { "name": "Itajubá", "normalizedName": "itajuba", "lat": -22.42, "lon": -45.45 },
  { "name": "Itamarandiba", "normalizedName": "itamarandiba", "lat": -17.85, "lon": -42.85 },
  { "name": "Itamarati de Minas", "normalizedName": "itamarati de minas", "lat": -21.42, "lon": -42.79 },
  { "name": "Itambacuri", "normalizedName": "itambacuri", "lat": -18.03, "lon": -41.68 },
  { "name": "Itambé do Mato Dentro", "normalizedName": "itambe do mato dentro", "lat": -19.4, "lon": -43.31 },
  { "name": "Itamogi", "normalizedName": "itamogi", "lat": -21.09, "lon": -46.88 },
  { "name": "Itamonte", "normalizedName": "itamonte", "lat": -22.28, "lon": -44.86 },
  { "name": "Itanhandu", "normalizedName": "itanhandu", "lat": -22.29, "lon": -44.93 },
  { "name": "Itanhomi", "normalizedName": "itanhomi", "lat": -19.16, "lon": -41.86 },
  { "name": "Itaobim", "normalizedName": "itaobim", "lat": -16.56, "lon": -41.5 },
  { "name": "Itapagipe", "normalizedName": "itapagipe", "lat": -19.9, "lon": -49.37 },
  { "name": "Itapecerica", "normalizedName": "itapecerica", "lat": -20.47, "lon": -45.12 },
  { "name": "Itapeva", "normalizedName": "itapeva", "lat": -22.76, "lon": -46.22 },
  { "name": "Itatiaiuçu", "normalizedName": "itatiaiucu", "lat": -20.19, "lon": -44.41 },
  { "name": "Itaú de Minas", "normalizedName": "itau de minas", "lat": -20.73, "lon": -46.75 },
  { "name": "Itaúna", "normalizedName": "itauna", "lat": -20.07, "lon": -44.57 },
  { "name": "Itaverava", "normalizedName": "itaverava", "lat": -20.66, "lon": -43.6 },
  { "name": "Itinga", "normalizedName": "itinga", "lat": -16.6, "lon": -41.77 },
  { "name": "Itueta", "normalizedName": "itueta", "lat": -19.36, "lon": -41.13 },
  { "name": "Ituiutaba", "normalizedName": "ituiutaba", "lat": -18.97, "lon": -49.46 },
  { "name": "Itumirim", "normalizedName": "itumirim", "lat": -21.31, "lon": -44.86 },
  { "name": "Iturama", "normalizedName": "iturama", "lat": -19.72, "lon": -50.19 },
  { "name": "Itutinga", "normalizedName": "itutinga", "lat": -21.29, "lon": -44.66 },
  { "name": "Jaboticatubas", "normalizedName": "jaboticatubas", "lat": -19.51, "lon": -43.74 },
  { "name": "Jacinto", "normalizedName": "jacinto", "lat": -16.15, "lon": -40.29 },
  { "name": "Jacuí", "normalizedName": "jacui", "lat": -21.01, "lon": -46.74 },
  { "name": "Jacutinga", "normalizedName": "jacutinga", "lat": -22.28, "lon": -46.61 },
  { "name": "Jaguaraçu", "normalizedName": "jaguaracu", "lat": -19.65, "lon": -42.76 },
  { "name": "Jaíba", "normalizedName": "jaiba", "lat": -15.34, "lon": -43.68 },
  { "name": "Jampruca", "normalizedName": "jampruca", "lat": -18.3, "lon": -41.65 },
  { "name": "Janaúba", "normalizedName": "janauba", "lat": -15.8, "lon": -43.3 },
  { "name": "Januária", "normalizedName": "januaria", "lat": -15.48, "lon": -44.36 },
  { "name": "Japaraíba", "normalizedName": "japaraiba", "lat": -20.14, "lon": -45.54 },
  { "name": "Japonvar", "normalizedName": "japonvar", "lat": -16.03, "lon": -44.33 },
  { "name": "Jeceaba", "normalizedName": "jeceaba", "lat": -20.57, "lon": -43.99 },
  { "name": "Jenipapo de Minas", "normalizedName": "jenipapo de minas", "lat": -16.82, "lon": -42.38 },
  { "name": "Jequeri", "normalizedName": "jequeri", "lat": -20.45, "lon": -42.66 },
  { "name": "Jequitaí", "normalizedName": "jequitai", "lat": -17.22, "lon": -44.45 },
  { "name": "Jequitibá", "normalizedName": "jequitiba", "lat": -19.24, "lon": -44.03 },
  { "name": "Jequitinhonha", "normalizedName": "jequitinhonha", "lat": -16.43, "lon": -41 },
  { "name": "Jesuânia", "normalizedName": "jesuania", "lat": -21.98, "lon": -45.29 },
  { "name": "Joaíma", "normalizedName": "joaima", "lat": -16.65, "lon": -41.04 },
  { "name": "Joanésia", "normalizedName": "joanesia", "lat": -19.17, "lon": -42.67 },
  { "name": "João Monlevade", "normalizedName": "joao monlevade", "lat": -19.81, "lon": -43.17 },
  { "name": "João Pinheiro", "normalizedName": "joao pinheiro", "lat": -17.74, "lon": -46.17 },
  { "name": "Joaquim Felício", "normalizedName": "joaquim felicio", "lat": -17.75, "lon": -44.25 },
  { "name": "Jordânia", "normalizedName": "jordania", "lat": -15.9, "lon": -40.19 },
  { "name": "José Gonçalves de Minas", "normalizedName": "jose goncalves de minas", "lat": -16.96, "lon": -42.59 },
  { "name": "José Raydan", "normalizedName": "jose raydan", "lat": -18.13, "lon": -42.84 },
  { "name": "Josenópolis", "normalizedName": "josenopolis", "lat": -16.56, "lon": -42.71 },
  { "name": "Nova União", "normalizedName": "nova uniao", "lat": -19.64, "lon": -43.59 },
  { "name": "Juatuba", "normalizedName": "juatuba", "lat": -19.95, "lon": -44.33 },
  { "name": "Juiz de Fora", "normalizedName": "juiz de fora", "lat": -21.764, "lon": -43.349 },
  { "name": "Juramento", "normalizedName": "juramento", "lat": -16.83, "lon": -43.58 },
  { "name": "Juruaia", "normalizedName": "juruaia", "lat": -21.25, "lon": -46.58 },
  { "name": "Juvenília", "normalizedName": "juvenilia", "lat": -14.28, "lon": -44.13 },
  { "name": "Ladainha", "normalizedName": "ladainha", "lat": -17.63, "lon": -41.74 },
  { "name": "Lagamar", "normalizedName": "lagamar", "lat": -18.18, "lon": -46.8 },
  { "name": "Lagoa da Prata", "normalizedName": "lagoa da prata", "lat": -20.02, "lon": -45.54 },
  { "name": "Lagoa dos Patos", "normalizedName": "lagoa dos patos", "lat": -16.71, "lon": -44.59 },
  { "name": "Lagoa Dourada", "normalizedName": "lagoa dourada", "lat": -20.91, "lon": -44.07 },
  { "name": "Lagoa Formosa", "normalizedName": "lagoa formosa", "lat": -18.78, "lon": -46.4 },
  { "name": "Lagoa Grande", "normalizedName": "lagoa grande", "lat": -17.82, "lon": -46.51 },
  { "name": "Lagoa Santa", "normalizedName": "lagoa santa", "lat": -19.62, "lon": -43.89 },
  { "name": "Lajinha", "normalizedName": "lajinha", "lat": -20.14, "lon": -41.62 },
  { "name": "Lambari", "normalizedName": "lambari", "lat": -21.97, "lon": -45.35 },
  { "name": "Lamim", "normalizedName": "lamim", "lat": -20.76, "lon": -43.43 },
  { "name": "Laranjal", "normalizedName": "laranjal", "lat": -21.3, "lon": -42.23 },
  { "name": "Lassance", "normalizedName": "lassance", "lat": -17.88, "lon": -44.57 },
  { "name": "Lavras", "normalizedName": "lavras", "lat": -21.24, "lon": -45 },
  { "name": "Leandro Ferreira", "normalizedName": "leandro ferreira", "lat": -19.7, "lon": -44.97 },
  { "name": "Leme do Prado", "normalizedName": "leme do prado", "lat": -17.07, "lon": -42.67 },
  { "name": "Leopoldina", "normalizedName": "leopoldina", "lat": -21.53, "lon": -42.64 },
  { "name": "Liberdade", "normalizedName": "liberdade", "lat": -22.02, "lon": -44.32 },
  { "name": "Lima Duarte", "normalizedName": "lima duarte", "lat": -21.84, "lon": -43.79 },
  { "name": "Limeira do Oeste", "normalizedName": "limeira do oeste", "lat": -19.55, "lon": -50.58 },
  { "name": "Lontra", "normalizedName": "lontra", "lat": -15.91, "lon": -44.3 },
  { "name": "Luisburgo", "normalizedName": "luisburgo", "lat": -20.44, "lon": -42.11 },
  { "name": "Luislândia", "normalizedName": "luislandia", "lat": -16.14, "lon": -44.62 },
  { "name": "Luminárias", "normalizedName": "luminarias", "lat": -21.5, "lon": -44.9 },
  { "name": "Luz", "normalizedName": "luz", "lat": -19.8, "lon": -45.68 },
  { "name": "Machacalis", "normalizedName": "machacalis", "lat": -17.07, "lon": -40.71 },
  { "name": "Machado", "normalizedName": "machado", "lat": -21.66, "lon": -45.92 },
  { "name": "Madre de Deus de Minas", "normalizedName": "madre de deus de minas", "lat": -21.47, "lon": -44.32 },
  { "name": "Malacacheta", "normalizedName": "malacacheta", "lat": -17.84, "lon": -42.07 },
  { "name": "Mamonas", "normalizedName": "mamonas", "lat": -15.06, "lon": -42.92 },
  { "name": "Manga", "normalizedName": "manga", "lat": -14.76, "lon": -43.93 },
  { "name": "Manhuaçu", "normalizedName": "manhuacu", "lat": -20.257, "lon": -42.033 },
  { "name": "Manhumirim", "normalizedName": "manhumirim", "lat": -20.35, "lon": -41.95 },
  { "name": "Mantena", "normalizedName": "mantena", "lat": -18.78, "lon": -41.12 },
  { "name": "Maravilhas", "normalizedName": "maravilhas", "lat": -19.64, "lon": -44.68 },
  { "name": "Mar de Espanha", "normalizedName": "mar de espanha", "lat": -21.86, "lon": -43.01 },
  { "name": "Maria da Fé", "normalizedName": "maria da fe", "lat": -22.3, "lon": -45.37 },
  { "name": "Mariana", "normalizedName": "mariana", "lat": -20.37, "lon": -43.41 },
  { "name": "Marilac", "normalizedName": "marilac", "lat": -18.49, "lon": -42.1 },
  { "name": "Mário Campos", "normalizedName": "mario campos", "lat": -20.04, "lon": -44.17 },
  { "name": "Maripá de Minas", "normalizedName": "maripa de minas", "lat": -21.65, "lon": -43.04 },
  { "name": "Marliéria", "normalizedName": "marlieria", "lat": -19.71, "lon": -42.69 },
  { "name": "Marmelópolis", "normalizedName": "marmelopolis", "lat": -22.45, "lon": -45.16 },
  { "name": "Martinho Campos", "normalizedName": "martinho campos", "lat": -19.33, "lon": -45.23 },
  { "name": "Martins Soares", "normalizedName": "martins soares", "lat": -20.25, "lon": -41.87 },
  { "name": "Mata Verde", "normalizedName": "mata verde", "lat": -15.93, "lon": -40.54 },
  { "name": "Materlândia", "normalizedName": "materlandia", "lat": -18.47, "lon": -42.92 },
  { "name": "Mateus Leme", "normalizedName": "mateus leme", "lat": -19.98, "lon": -44.42 },
  { "name": "Matias Barbosa", "normalizedName": "matias barbosa", "lat": -21.87, "lon": -43.32 },
  { "name": "Matias Cardoso", "normalizedName": "matias cardoso", "lat": -14.86, "lon": -43.91 },
  { "name": "Matipó", "normalizedName": "matipo", "lat": -20.29, "lon": -42.33 },
  { "name": "Mato Verde", "normalizedName": "mato verde", "lat": -15.38, "lon": -42.87 },
  { "name": "Matozinhos", "normalizedName": "matozinhos", "lat": -19.55, "lon": -44.07 },
  { "name": "Matutina", "normalizedName": "matutina", "lat": -19.26, "lon": -45.97 },
  { "name": "Medeiros", "normalizedName": "medeiros", "lat": -19.99, "lon": -46.22 },
  { "name": "Medina", "normalizedName": "medina", "lat": -16.22, "lon": -41.47 },
  { "name": "Mendes Pimentel", "normalizedName": "mendes pimentel", "lat": -18.66, "lon": -41.4 },
  { "name": "Mercês", "normalizedName": "merces", "lat": -21.18, "lon": -43.34 },
  { "name": "Mesquita", "normalizedName": "mesquita", "lat": -19.22, "lon": -42.59 },
  { "name": "Minas Novas", "normalizedName": "minas novas", "lat": -17.23, "lon": -42.59 },
  { "name": "Minduri", "normalizedName": "minduri", "lat": -21.68, "lon": -44.86 },
  { "name": "Mirabela", "normalizedName": "mirabela", "lat": -16.26, "lon": -44.16 },
  { "name": "Miradouro", "normalizedName": "miradouro", "lat": -20.89, "lon": -42.36 },
  { "name": "Miraí", "normalizedName": "mirai", "lat": -21.19, "lon": -42.61 },
  { "name": "Miravânia", "normalizedName": "miravania", "lat": -14.65, "lon": -44.22 },
  { "name": "Moeda", "normalizedName": "moeda", "lat": -20.33, "lon": -43.9 },
  { "name": "Moema", "normalizedName": "moema", "lat": -19.84, "lon": -45.41 },
  { "name": "Monjolos", "normalizedName": "monjolos", "lat": -18.64, "lon": -44.11 },
  { "name": "Monsenhor Paulo", "normalizedName": "monsenhor paulo", "lat": -21.75, "lon": -45.54 },
  { "name": "Montalvânia", "normalizedName": "montalvania", "lat": -14.42, "lon": -44.37 },
  { "name": "Monte Alegre de Minas", "normalizedName": "monte alegre de minas", "lat": -18.86, "lon": -48.88 },
  { "name": "Monte Azul", "normalizedName": "monte azul", "lat": -15.15, "lon": -42.87 },
  { "name": "Monte Belo", "normalizedName": "monte belo", "lat": -21.32, "lon": -46.34 },
  { "name": "Monte Carmelo", "normalizedName": "monte carmelo", "lat": -18.72, "lon": -47.49 },
  { "name": "Monte Formoso", "normalizedName": "monte formoso", "lat": -16.59, "lon": -40.83 },
  { "name": "Monte Santo de Minas", "normalizedName": "monte santo de minas", "lat": -21.19, "lon": -46.97 },
  { "name": "Montes Claros", "normalizedName": "montes claros", "lat": -16.735, "lon": -43.861 },
  { "name": "Monte Sião", "normalizedName": "monte siao", "lat": -22.42, "lon": -46.57 },
  { "name": "Montezuma", "normalizedName": "montezuma", "lat": -15.17, "lon": -42.49 },
  { "name": "Morada Nova de Minas", "normalizedName": "morada nova de minas", "lat": -18.59, "lon": -45.35 },
  { "name": "Morro da Garça", "normalizedName": "morro da garca", "lat": -18.55, "lon": -44.6 },
  { "name": "Morro do Pilar", "normalizedName": "morro do pilar", "lat": -19.22, "lon": -43.4 },
  { "name": "Munhoz", "normalizedName": "munhoz", "lat": -22.61, "lon": -46.36 },
  { "name": "Muriaé", "normalizedName": "muriae", "lat": -21.13, "lon": -42.366 },
  { "name": "Mutum", "normalizedName": "mutum", "lat": -19.8, "lon": -41.43 },
  { "name": "Muzambinho", "normalizedName": "muzambinho", "lat": -21.37, "lon": -46.52 },
  { "name": "Nacip Raydan", "normalizedName": "nacip raydan", "lat": -18.5, "lon": -42.23 },
  { "name": "Nanuque", "normalizedName": "nanuque", "lat": -17.83, "lon": -40.35 },
  { "name": "Naque", "normalizedName": "naque", "lat": -19.24, "lon": -42.5 },
  { "name": "Natalândia", "normalizedName": "natalandia", "lat": -16.48, "lon": -46.48 },
  { "name": "Natércia", "normalizedName": "natercia", "lat": -22.12, "lon": -45.5 },
  { "name": "Nazareno", "normalizedName": "nazareno", "lat": -21.21, "lon": -44.61 },
  { "name": "Nepomuceno", "normalizedName": "nepomuceno", "lat": -21.23, "lon": -45.23 },
  { "name": "Ninheira", "normalizedName": "ninheira", "lat": -15.29, "lon": -41.72 },
  { "name": "Nova Belém", "normalizedName": "nova belem", "lat": -18.48, "lon": -41.2 },
  { "name": "Nova Era", "normalizedName": "nova era", "lat": -19.74, "lon": -43.03 },
  { "name": "Nova Lima", "normalizedName": "nova lima", "lat": -19.98, "lon": -43.84 },
  { "name": "Nova Módica", "normalizedName": "nova modica", "lat": -18.4, "lon": -41.74 },
  { "name": "Nova Ponte", "normalizedName": "nova ponte", "lat": -19.16, "lon": -47.68 },
  { "name": "Nova Porteirinha", "normalizedName": "nova porteirinha", "lat": -15.8, "lon": -43.28 },
  { "name": "Nova Resende", "normalizedName": "nova resende", "lat": -21.12, "lon": -46.41 },
  { "name": "Nova Serrana", "normalizedName": "nova serrana", "lat": -19.87, "lon": -44.98 },
  { "name": "Novo Cruzeiro", "normalizedName": "novo cruzeiro", "lat": -17.46, "lon": -41.87 },
  { "name": "Novo Oriente de Minas", "normalizedName": "novo oriente de minas", "lat": -17.37, "lon": -41.14 },
  { "name": "Novorizonte", "normalizedName": "novorizonte", "lat": -16.03, "lon": -42.15 },
  { "name": "Olaria", "normalizedName": "olaria", "lat": -21.87, "lon": -43.93 },
  { "name": "Olhos-d'Água", "normalizedName": "olhos-d'agua", "lat": -17.47, "lon": -43.91 },
  { "name": "Olímpio Noronha", "normalizedName": "olimpio noronha", "lat": -21.99, "lon": -45.24 },
  { "name": "Oliveira", "normalizedName": "oliveira", "lat": -20.69, "lon": -44.82 },
  { "name": "Oliveira Fortes", "normalizedName": "oliveira fortes", "lat": -21.46, "lon": -43.43 },
  { "name": "Onça de Pitangui", "normalizedName": "onca de pitangui", "lat": -19.73, "lon": -44.82 },
  { "name": "Oratórios", "normalizedName": "oratorios", "lat": -20.42, "lon": -42.8 },
  { "name": "Orizânia", "normalizedName": "orizania", "lat": -20.53, "lon": -42.2 },
  { "name": "Ouro Branco", "normalizedName": "ouro branco", "lat": -20.52, "lon": -43.69 },
  { "name": "Ouro Fino", "normalizedName": "ouro fino", "lat": -22.28, "lon": -46.36 },
  { "name": "Ouro Preto", "normalizedName": "ouro preto", "lat": -20.38, "lon": -43.5 },
  { "name": "Ouro Verde de Minas", "normalizedName": "ouro verde de minas", "lat": -18.06, "lon": -41.25 },
  { "name": "Padre Carvalho", "normalizedName": "padre carvalho", "lat": -16.43, "lon": -42.58 },
  { "name": "Padre Paraíso", "normalizedName": "padre paraiso", "lat": -17.11, "lon": -41.51 },
  { "name": "Paineiras", "normalizedName": "paineiras", "lat": -18.91, "lon": -45.54 },
  { "name": "Pains", "normalizedName": "pains", "lat": -20.36, "lon": -45.66 },
  { "name": "Pai Pedro", "normalizedName": "pai pedro", "lat": -15.42, "lon": -43.05 },
  { "name": "Paiva", "normalizedName": "paiva", "lat": -21.28, "lon": -43.43 },
  { "name": "Palma", "normalizedName": "palma", "lat": -21.39, "lon": -42.31 },
  { "name": "Palmópolis", "normalizedName": "palmopolis", "lat": -16.71, "lon": -40.42 },
  { "name": "Papagaios", "normalizedName": "papagaios", "lat": -19.44, "lon": -44.75 },
  { "name": "Paracatu", "normalizedName": "paracatu", "lat": -17.22, "lon": -46.87 },
  { "name": "Pará de Minas", "normalizedName": "para de minas", "lat": -19.86, "lon": -44.6 },
  { "name": "Paraguaçu", "normalizedName": "paraguacu", "lat": -21.54, "lon": -45.74 },
  { "name": "Paraisópolis", "normalizedName": "paraisopolis", "lat": -22.55, "lon": -45.77 },
  { "name": "Paraopeba", "normalizedName": "paraopeba", "lat": -19.27, "lon": -44.4 },
  { "name": "Passabém", "normalizedName": "passabem", "lat": -19.3, "lon": -43.2 },
  { "name": "Passa Quatro", "normalizedName": "passa quatro", "lat": -22.39, "lon": -44.96 },
  { "name": "Passa Tempo", "normalizedName": "passa tempo", "lat": -20.65, "lon": -44.49 },
  { "name": "Passa-Vinte", "normalizedName": "passa-vinte", "lat": -22.2, "lon": -44.22 },
  { "name": "Passos", "normalizedName": "passos", "lat": -20.71, "lon": -46.6 },
  { "name": "Patis", "normalizedName": "patis", "lat": -16.08, "lon": -43.83 },
  { "name": "Patos de Minas", "normalizedName": "patos de minas", "lat": -18.57, "lon": -46.51 },
  { "name": "Patrocínio", "normalizedName": "patrocinio", "lat": -18.94, "lon": -46.99 },
  { "name": "Patrocínio do Muriaé", "normalizedName": "patrocinio do muriae", "lat": -21.15, "lon": -42.26 },
  { "name": "Paula Cândido", "normalizedName": "paula candido", "lat": -20.87, "lon": -42.92 },
  { "name": "Paulistas", "normalizedName": "paulistas", "lat": -18.4, "lon": -42.86 },
  { "name": "Pavão", "normalizedName": "pavao", "lat": -17.43, "lon": -41.01 },
  { "name": "Peçanha", "normalizedName": "pecanha", "lat": -18.55, "lon": -42.56 },
  { "name": "Pedra Azul", "normalizedName": "pedra azul", "lat": -16, "lon": -41.27 },
  { "name": "Pedra Bonita", "normalizedName": "pedra bonita", "lat": -20.5, "lon": -42.33 },
  { "name": "Pedra do Anta", "normalizedName": "pedra do anta", "lat": -20.6, "lon": -42.71 },
  { "name": "Pedra do Indaiá", "normalizedName": "pedra do indaia", "lat": -20.25, "lon": -45.21 },
  { "name": "Pedra Dourada", "normalizedName": "pedra dourada", "lat": -20.81, "lon": -42.16 },
  { "name": "Pedralva", "normalizedName": "pedralva", "lat": -22.24, "lon": -45.46 },
  { "name": "Pedras de Maria da Cruz", "normalizedName": "pedras de maria da cruz", "lat": -15.6, "lon": -44.38 },
  { "name": "Pedrinópolis", "normalizedName": "pedrinopolis", "lat": -19.22, "lon": -47.67 },
  { "name": "Pedro Leopoldo", "normalizedName": "pedro leopoldo", "lat": -19.62, "lon": -44.04 },
  { "name": "Pedro Teixeira", "normalizedName": "pedro teixeira", "lat": -21.75, "lon": -43.68 },
  { "name": "Pequeri", "normalizedName": "pequeri", "lat": -21.82, "lon": -43.1 },
  { "name": "Pequi", "normalizedName": "pequi", "lat": -19.64, "lon": -44.81 },
  { "name": "Perdigão", "normalizedName": "perdigao", "lat": -19.95, "lon": -45.09 },
  { "name": "Perdizes", "normalizedName": "perdizes", "lat": -19.35, "lon": -47.29 },
  { "name": "Perdões", "normalizedName": "perdoes", "lat": -21.09, "lon": -45.08 },
  { "name": "Periquito", "normalizedName": "periquito", "lat": -19.11, "lon": -42.27 },
  { "name": "Pescador", "normalizedName": "pescador", "lat": -18.35, "lon": -42.11 },
  { "name": "Piau", "normalizedName": "piau", "lat": -21.43, "lon": -43.34 },
  { "name": "Piedade de Caratinga", "normalizedName": "piedade de caratinga", "lat": -19.68, "lon": -42.06 },
  { "name": "Piedade de Ponte Nova", "normalizedName": "piedade de ponte nova", "lat": -20.21, "lon": -42.7 },
  { "name": "Piedade do Rio Grande", "normalizedName": "piedade do rio grande", "lat": -21.45, "lon": -44.21 },
  { "name": "Piedade dos Gerais", "normalizedName": "piedade dos gerais", "lat": -20.47, "lon": -44.22 },
  { "name": "Pimenta", "normalizedName": "pimenta", "lat": -20.48, "lon": -45.81 },
  { "name": "Pingo-d'Água", "normalizedName": "pingo-d'agua", "lat": -19.7, "lon": -42.45 },
  { "name": "Pintópolis", "normalizedName": "pintopolis", "lat": -15.86, "lon": -45.05 },
  { "name": "Piracema", "normalizedName": "piracema", "lat": -20.5, "lon": -44.47 },
  { "name": "Pirajuba", "normalizedName": "pirajuba", "lat": -19.89, "lon": -48.74 },
  { "name": "Piranga", "normalizedName": "piranga", "lat": -20.67, "lon": -43.29 },
  { "name": "Piranguçu", "normalizedName": "pirangucu", "lat": -22.52, "lon": -45.5 },
  { "name": "Piranguinho", "normalizedName": "piranguinho", "lat": -22.37, "lon": -45.5 },
  { "name": "Pirapetinga", "normalizedName": "pirapetinga", "lat": -21.75, "lon": -42.34 },
  { "name": "Pirapora", "normalizedName": "pirapora", "lat": -17.34, "lon": -44.94 },
  { "name": "Piraúba", "normalizedName": "pirauba", "lat": -21.28, "lon": -43.03 },
  { "name": "Pitangui", "normalizedName": "pitangui", "lat": -19.68, "lon": -44.89 },
  { "name": "Piumhi", "normalizedName": "piumhi", "lat": -20.46, "lon": -46.35 },
  { "name": "Planura", "normalizedName": "planura", "lat": -20.13, "lon": -48.67 },
  { "name": "Poço Fundo", "normalizedName": "poco fundo", "lat": -21.78, "lon": -45.96 },
  { "name": "Poços de Caldas", "normalizedName": "pocos de caldas", "lat": -21.78, "lon": -46.56 },
  { "name": "Pocrane", "normalizedName": "pocrane", "lat": -19.56, "lon": -41.79 },
  { "name": "Pompéu", "normalizedName": "pompeu", "lat": -19.22, "lon": -44.9 },
  { "name": "Ponte Nova", "normalizedName": "ponte nova", "lat": -20.41, "lon": -42.9 },
  { "name": "Ponto Chique", "normalizedName": "ponto chique", "lat": -16.63, "lon": -44.75 },
  { "name": "Ponto dos Volantes", "normalizedName": "ponto dos volantes", "lat": -16.74, "lon": -41.5 },
  { "name": "Porteirinha", "normalizedName": "porteirinha", "lat": -15.74, "lon": -43.02 },
  { "name": "Porto Firme", "normalizedName": "porto firme", "lat": -20.67, "lon": -43.09 },
  { "name": "Poté", "normalizedName": "pote", "lat": -17.8, "lon": -41.9 },
  { "name": "Pouso Alegre", "normalizedName": "pouso alegre", "lat": -22.23, "lon": -45.93 },
  { "name": "Pouso Alto", "normalizedName": "pouso alto", "lat": -22.19, "lon": -44.97 },
  { "name": "Prados", "normalizedName": "prados", "lat": -21.05, "lon": -44.08 },
  { "name": "Prata", "normalizedName": "prata", "lat": -19.3, "lon": -48.92 },
  { "name": "Pratápolis", "normalizedName": "pratapolis", "lat": -20.74, "lon": -46.86 },
  { "name": "Pratinha", "normalizedName": "pratinha", "lat": -19.75, "lon": -46.37 },
  { "name": "Presidente Bernardes", "normalizedName": "presidente bernardes", "lat": -20.77, "lon": -43.16 },
  { "name": "Presidente Juscelino", "normalizedName": "presidente juscelino", "lat": -18.63, "lon": -44.06 },
  { "name": "Presidente Kubitschek", "normalizedName": "presidente kubitschek", "lat": -18.62, "lon": -43.56 },
  { "name": "Presidente Olegário", "normalizedName": "presidente olegario", "lat": -18.41, "lon": -46.41 },
  { "name": "Alto Jequitibá", "normalizedName": "alto jequitiba", "lat": -20.42, "lon": -41.97 },
  { "name": "Prudente de Morais", "normalizedName": "prudente de morais", "lat": -19.47, "lon": -44.15 },
  { "name": "Quartel Geral", "normalizedName": "quartel geral", "lat": -19.29, "lon": -45.54 },
  { "name": "Queluzito", "normalizedName": "queluzito", "lat": -20.68, "lon": -43.88 },
  { "name": "Raposos", "normalizedName": "raposos", "lat": -19.96, "lon": -43.8 },
  { "name": "Raul Soares", "normalizedName": "raul soares", "lat": -20.1, "lon": -42.45 },
  { "name": "Recreio", "normalizedName": "recreio", "lat": -21.52, "lon": -42.47 },
  { "name": "Reduto", "normalizedName": "reduto", "lat": -20.24, "lon": -41.97 },
  { "name": "Resende Costa", "normalizedName": "resende costa", "lat": -20.91, "lon": -44.23 },
  { "name": "Resplendor", "normalizedName": "resplendor", "lat": -19.32, "lon": -41.25 },
  { "name": "Ressaquinha", "normalizedName": "ressaquinha", "lat": -21.06, "lon": -43.76 },
  { "name": "Riachinho", "normalizedName": "riachinho", "lat": -16.2, "lon": -45.06 },
  { "name": "Riacho dos Machados", "normalizedName": "riacho dos machados", "lat": -16.01, "lon": -43.04 },
  { "name": "Ribeirão das Neves", "normalizedName": "ribeirao das neves", "lat": -19.76, "lon": -44.08 },
  { "name": "Ribeirão Vermelho", "normalizedName": "ribeirao vermelho", "lat": -21.16, "lon": -45.05 },
  { "name": "Rio Acima", "normalizedName": "rio acima", "lat": -20.09, "lon": -43.78 },
  { "name": "Rio Casca", "normalizedName": "rio casca", "lat": -20.22, "lon": -42.64 },
  { "name": "Rio Doce", "normalizedName": "rio doce", "lat": -20.24, "lon": -42.91 },
  { "name": "Rio do Prado", "normalizedName": "rio do prado", "lat": -16.48, "lon": -40.6 },
  { "name": "Rio Espera", "normalizedName": "rio espera", "lat": -20.85, "lon": -43.47 },
  { "name": "Rio Manso", "normalizedName": "rio manso", "lat": -20.27, "lon": -44.31 },
  { "name": "Rio Novo", "normalizedName": "rio novo", "lat": -21.46, "lon": -43.12 },
  { "name": "Rio Paranaíba", "normalizedName": "rio paranaiba", "lat": -19.19, "lon": -46.24 },
  { "name": "Rio Pardo de Minas", "normalizedName": "rio pardo de minas", "lat": -15.61, "lon": -42.53 },
  { "name": "Rio Piracicaba", "normalizedName": "rio piracicaba", "lat": -19.92, "lon": -43.17 },
  { "name": "Rio Pomba", "normalizedName": "rio pomba", "lat": -21.27, "lon": -43.17 },
  { "name": "Rio Preto", "normalizedName": "rio preto", "lat": -22.08, "lon": -43.89 },
  { "name": "Rio Vermelho", "normalizedName": "rio vermelho", "lat": -18.3, "lon": -43 },
  { "name": "Ritápolis", "normalizedName": "ritapolis", "lat": -21.02, "lon": -44.32 },
  { "name": "Rochedo de Minas", "normalizedName": "rochedo de minas", "lat": -21.7, "lon": -43.08 },
  { "name": "Rodeiro", "normalizedName": "rodeiro", "lat": -21.2, "lon": -42.85 },
  { "name": "Romaria", "normalizedName": "romaria", "lat": -18.88, "lon": -47.58 },
  { "name": "Rosário da Limeira", "normalizedName": "rosario da limeira", "lat": -20.98, "lon": -42.5 },
  { "name": "Rubelita", "normalizedName": "rubelita", "lat": -16.4, "lon": -42.06 },
  { "name": "Rubim", "normalizedName": "rubim", "lat": -16.37, "lon": -40.58 },
  { "name": "Sabará", "normalizedName": "sabara", "lat": -19.88, "lon": -43.8 },
  { "name": "Sabinópolis", "normalizedName": "sabinopolis", "lat": -18.67, "lon": -43.08 },
  { "name": "Sacramento", "normalizedName": "sacramento", "lat": -19.86, "lon": -47.44 },
  { "name": "Salinas", "normalizedName": "salinas", "lat": -16.17, "lon": -42.29 },
  { "name": "Salto da Divisa", "normalizedName": "salto da divisa", "lat": -16.01, "lon": -39.95 },
  { "name": "Santa Bárbara", "normalizedName": "santa barbara", "lat": -19.95, "lon": -43.41 },
  { "name": "Santa Bárbara do Leste", "normalizedName": "santa barbara do leste", "lat": -19.96, "lon": -42.13 },
  { "name": "Santa Bárbara do Monte Verde", "normalizedName": "santa barbara do monte verde", "lat": -21.96, "lon": -43.68 },
  { "name": "Santa Bárbara do Tugúrio", "normalizedName": "santa barbara do tugurio", "lat": -21.56, "lon": -43.63 },
  { "name": "Santa Cruz de Minas", "normalizedName": "santa cruz de minas", "lat": -21.11, "lon": -44.22 },
  { "name": "Santa Cruz de Salinas", "normalizedName": "santa cruz de salinas", "lat": -16.03, "lon": -41.77 },
  { "name": "Santa Cruz do Escalvado", "normalizedName": "santa cruz do escalvado", "lat": -20.23, "lon": -42.82 },
  { "name": "Santa Efigênia de Minas", "normalizedName": "santa efigenia de minas", "lat": -18.79, "lon": -42.42 },
  { "name": "Santa Fé de Minas", "normalizedName": "santa fe de minas", "lat": -16.66, "lon": -45.41 },
  { "name": "Santa Helena de Minas", "normalizedName": "santa helena de minas", "lat": -16.98, "lon": -40.85 },
  { "name": "Santa Juliana", "normalizedName": "santa juliana", "lat": -19.31, "lon": -47.54 },
  { "name": "Santa Luzia", "normalizedName": "santa luzia", "lat": -19.76, "lon": -43.85 },
  { "name": "Santa Margarida", "normalizedName": "santa margarida", "lat": -20.39, "lon": -42.25 },
  { "name": "Santa Maria de Itabira", "normalizedName": "santa maria de itabira", "lat": -19.34, "lon": -43.08 },
  { "name": "Santa Maria do Salto", "normalizedName": "santa maria do salto", "lat": -16.24, "lon": -40.15 },
  { "name": "Santa Maria do Suaçuí", "normalizedName": "santa maria do suacui", "lat": -18.2, "lon": -42.41 },
  { "name": "Santana da Vargem", "normalizedName": "santana da vargem", "lat": -21.36, "lon": -45.54 },
  { "name": "Santana de Cataguases", "normalizedName": "santana de cataguases", "lat": -21.28, "lon": -42.57 },
  { "name": "Santana de Pirapama", "normalizedName": "santana de pirapama", "lat": -19.01, "lon": -44.02 },
  { "name": "Santana do Deserto", "normalizedName": "santana do deserto", "lat": -21.93, "lon": -43.16 },
  { "name": "Santana do Garambéu", "normalizedName": "santana do garambeu", "lat": -21.61, "lon": -44.08 },
  { "name": "Santana do Jacaré", "normalizedName": "santana do jacare", "lat": -20.89, "lon": -45.15 },
  { "name": "Santana do Manhuaçu", "normalizedName": "santana do manhuacu", "lat": -20.06, "lon": -41.92 },
  { "name": "Santana do Paraíso", "normalizedName": "santana do paraiso", "lat": -19.35, "lon": -42.52 },
  { "name": "Santana do Riacho", "normalizedName": "santana do riacho", "lat": -19.16, "lon": -43.7 },
  { "name": "Santana dos Montes", "normalizedName": "santana dos montes", "lat": -20.78, "lon": -43.69 },
  { "name": "Santa Rita de Caldas", "normalizedName": "santa rita de caldas", "lat": -22.03, "lon": -46.33 },
  { "name": "Santa Rita de Jacutinga", "normalizedName": "santa rita de jacutinga", "lat": -22.11, "lon": -44.1 },
  { "name": "Santa Rita de Minas", "normalizedName": "santa rita de minas", "lat": -19.85, "lon": -42.14 },
  { "name": "Santa Rita do Ibitipoca", "normalizedName": "santa rita do ibitipoca", "lat": -21.5, "lon": -43.91 },
  { "name": "Santa Rita do Itueto", "normalizedName": "santa rita do itueto", "lat": -19.34, "lon": -41.36 },
  { "name": "Santa Rita do Sapucaí", "normalizedName": "santa rita do sapucai", "lat": -22.25, "lon": -45.7 },
  { "name": "Santa Rosa da Serra", "normalizedName": "santa rosa da serra", "lat": -19.5, "lon": -45.97 },
  { "name": "Santa Vitória", "normalizedName": "santa vitoria", "lat": -18.83, "lon": -50.12 },
  { "name": "Santo Antônio do Amparo", "normalizedName": "santo antonio do amparo", "lat": -20.94, "lon": -44.91 },
  { "name": "Santo Antônio do Aventureiro", "normalizedName": "santo antonio do aventureiro", "lat": -21.79, "lon": -42.82 },
  { "name": "Santo Antônio do Grama", "normalizedName": "santo antonio do grama", "lat": -20.31, "lon": -42.6 },
  { "name": "Santo Antônio do Itambé", "normalizedName": "santo antonio do itambe", "lat": -18.45, "lon": -43.32 },
  { "name": "Santo Antônio do Jacinto", "normalizedName": "santo antonio do jacinto", "lat": -16.53, "lon": -40.16 },
  { "name": "Santo Antônio do Monte", "normalizedName": "santo antonio do monte", "lat": -20.08, "lon": -45.29 },
  { "name": "Santo Antônio do Retiro", "normalizedName": "santo antonio do retiro", "lat": -15.25, "lon": -42.62 },
  { "name": "Santo Antônio do Rio Abaixo", "normalizedName": "santo antonio do rio abaixo", "lat": -19.2, "lon": -43.25 },
  { "name": "Santo Hipólito", "normalizedName": "santo hipolito", "lat": -18.44, "lon": -44.18 },
  { "name": "Santos Dumont", "normalizedName": "santos dumont", "lat": -21.45, "lon": -43.55 },
  { "name": "São Bento Abade", "normalizedName": "sao bento abade", "lat": -21.6, "lon": -45.07 },
  { "name": "São Brás do Suaçuí", "normalizedName": "sao bras do suacui", "lat": -20.62, "lon": -43.95 },
  { "name": "São Domingos das Dores", "normalizedName": "sao domingos das dores", "lat": -19.49, "lon": -42.04 },
  { "name": "São Domingos do Prata", "normalizedName": "sao domingos do prata", "lat": -19.84, "lon": -42.94 },
  { "name": "São Félix de Minas", "normalizedName": "sao felix de minas", "lat": -18.59, "lon": -41.48 },
  { "name": "São Francisco", "normalizedName": "sao francisco", "lat": -15.94, "lon": -44.86 },
  { "name": "São Francisco de Paula", "normalizedName": "sao francisco de paula", "lat": -20.72, "lon": -44.98 },
  { "name": "São Francisco de Sales", "normalizedName": "sao francisco de sales", "lat": -19.86, "lon": -49.77 },
  { "name": "São Francisco do Glória", "normalizedName": "sao francisco do gloria", "lat": -20.8, "lon": -42.27 },
  { "name": "São Geraldo", "normalizedName": "sao geraldo", "lat": -20.91, "lon": -42.84 },
  { "name": "São Geraldo da Piedade", "normalizedName": "sao geraldo da piedade", "lat": -18.84, "lon": -42.3 },
  { "name": "São Geraldo do Baixio", "normalizedName": "sao geraldo do baixio", "lat": -18.98, "lon": -41.34 },
  { "name": "São Gonçalo do Abaeté", "normalizedName": "sao goncalo do abaete", "lat": -18.33, "lon": -45.83 },
  { "name": "São Gonçalo do Pará", "normalizedName": "sao goncalo do para", "lat": -19.97, "lon": -44.85 },
  { "name": "São Gonçalo do Rio Abaixo", "normalizedName": "sao goncalo do rio abaixo", "lat": -19.82, "lon": -43.36 },
  { "name": "São Gonçalo do Sapucaí", "normalizedName": "sao goncalo do sapucai", "lat": -21.89, "lon": -45.59 },
  { "name": "São Gotardo", "normalizedName": "sao gotardo", "lat": -19.31, "lon": -46.04 },
  { "name": "São João Batista do Glória", "normalizedName": "sao joao batista do gloria", "lat": -20.64, "lon": -46.49 },
  { "name": "São João da Lagoa", "normalizedName": "sao joao da lagoa", "lat": -16.85, "lon": -44.38 },
  { "name": "São João da Mata", "normalizedName": "sao joao da mata", "lat": -21.91, "lon": -45.92 },
  { "name": "São João da Ponte", "normalizedName": "sao joao da ponte", "lat": -15.93, "lon": -44.01 },
  { "name": "São João del Rei", "normalizedName": "sao joao del rei", "lat": -21.13, "lon": -44.26 },
  { "name": "São João do Manhuaçu", "normalizedName": "sao joao do manhuacu", "lat": -20.35, "lon": -42.13 },
  { "name": "São João do Manteninha", "normalizedName": "sao joao do manteninha", "lat": -18.73, "lon": -41.22 },
  { "name": "São João do Oriente", "normalizedName": "sao joao do oriente", "lat": -19.34, "lon": -42.15 },
  { "name": "São João do Pacuí", "normalizedName": "sao joao do pacui", "lat": -16.56, "lon": -44.62 },
  { "name": "São João do Paraíso", "normalizedName": "sao joao do paraiso", "lat": -15.31, "lon": -42.01 },
  { "name": "São João Evangelista", "normalizedName": "sao joao evangelista", "lat": -18.54, "lon": -42.76 },
  { "name": "São João Nepomuceno", "normalizedName": "sao joao nepomuceno", "lat": -21.54, "lon": -43.01 },
  { "name": "São Joaquim de Bicas", "normalizedName": "sao joaquim de bicas", "lat": -20.05, "lon": -44.22 },
  { "name": "São José da Barra", "normalizedName": "sao jose da barra", "lat": -20.73, "lon": -46.28 },
  { "name": "São José da Lapa", "normalizedName": "sao jose da lapa", "lat": -19.7, "lon": -43.95 },
  { "name": "São José da Safira", "normalizedName": "sao jose da safira", "lat": -18.3, "lon": -42.15 },
  { "name": "São José da Varginha", "normalizedName": "sao jose da varginha", "lat": -19.72, "lon": -44.57 },
  { "name": "São José do Alegre", "normalizedName": "sao jose do alegre", "lat": -22.32, "lon": -45.52 },
  { "name": "São José do Divino", "normalizedName": "sao jose do divino", "lat": -18.49, "lon": -41.37 },
  { "name": "São José do Goiabal", "normalizedName": "sao jose do goiabal", "lat": -19.9, "lon": -42.7 },
  { "name": "São José do Jacuri", "normalizedName": "sao jose do jacuri", "lat": -18.25, "lon": -42.66 },
  { "name": "São José do Mantimento", "normalizedName": "sao jose do mantimento", "lat": -20.03, "lon": -41.74 },
  { "name": "São Lourenço", "normalizedName": "sao lourenco", "lat": -22.11, "lon": -45.05 },
  { "name": "São Miguel do Anta", "normalizedName": "sao miguel do anta", "lat": -20.71, "lon": -42.71 },
  { "name": "São Pedro da União", "normalizedName": "sao pedro da uniao", "lat": -21.13, "lon": -46.62 },
  { "name": "São Pedro dos Ferros", "normalizedName": "sao pedro dos ferros", "lat": -20.07, "lon": -42.55 },
  { "name": "São Pedro do Suaçuí", "normalizedName": "sao pedro do suacui", "lat": -18.46, "lon": -42.6 },
  { "name": "São Romão", "normalizedName": "sao romao", "lat": -16.36, "lon": -45.07 },
  { "name": "São Roque de Minas", "normalizedName": "sao roque de minas", "lat": -20.24, "lon": -46.36 },
  { "name": "São Sebastião da Bela Vista", "normalizedName": "sao sebastiao da bela vista", "lat": -22.15, "lon": -45.74 },
  { "name": "São Sebastião da Vargem Alegre", "normalizedName": "sao sebastiao da vargem alegre", "lat": -21.2, "lon": -42.44 },
  { "name": "São Sebastião do Anta", "normalizedName": "sao sebastiao do anta", "lat": -19.5, "lon": -41.97 },
  { "name": "São Sebastião do Maranhão", "normalizedName": "sao sebastiao do maranhao", "lat": -18.3, "lon": -42.57 },
  { "name": "São Sebastião do Oeste", "normalizedName": "sao sebastiao do oeste", "lat": -20.28, "lon": -45.03 },
  { "name": "São Sebastião do Paraíso", "normalizedName": "sao sebastiao do paraiso", "lat": -20.91, "lon": -46.98 },
  { "name": "São Sebastião do Rio Preto", "normalizedName": "sao sebastiao do rio preto", "lat": -19.14, "lon": -43.26 },
  { "name": "São Sebastião do Rio Verde", "normalizedName": "sao sebastiao do rio verde", "lat": -22.2, "lon": -45.02 },
  { "name": "São Tiago", "normalizedName": "sao tiago", "lat": -20.9, "lon": -44.52 },
  { "name": "São Tomás de Aquino", "normalizedName": "sao tomas de aquino", "lat": -20.78, "lon": -47.1 },
  { "name": "São Thomé das Letras", "normalizedName": "sao thome das letras", "lat": -21.72, "lon": -44.98 },
  { "name": "São Vicente de Minas", "normalizedName": "sao vicente de minas", "lat": -21.7, "lon": -44.44 },
  { "name": "Sapucaí-Mirim", "normalizedName": "sapucai-mirim", "lat": -22.73, "lon": -45.74 },
  { "name": "Sardoá", "normalizedName": "sardoa", "lat": -18.72, "lon": -42.4 },
  { "name": "Sarzedo", "normalizedName": "sarzedo", "lat": -20.03, "lon": -44.14 },
  { "name": "Setubinha", "normalizedName": "setubinha", "lat": -17.6, "lon": -42.15 },
  { "name": "Sem-Peixe", "normalizedName": "sem-peixe", "lat": -20.06, "lon": -42.82 },
  { "name": "Senador Amaral", "normalizedName": "senador amaral", "lat": -22.58, "lon": -46.17 },
  { "name": "Senador Cortes", "normalizedName": "senador cortes", "lat": -21.8, "lon": -42.94 },
  { "name": "Senador Firmino", "normalizedName": "senador firmino", "lat": -20.95, "lon": -43.08 },
  { "name": "Senador José Bento", "normalizedName": "senador jose bento", "lat": -22.18, "lon": -46.19 },
  { "name": "Senador Modestino Gonçalves", "normalizedName": "senador modestino goncalves", "lat": -17.97, "lon": -43.18 },
  { "name": "Senhora de Oliveira", "normalizedName": "senhora de oliveira", "lat": -20.81, "lon": -43.35 },
  { "name": "Senhora do Porto", "normalizedName": "senhora do porto", "lat": -18.89, "lon": -43.15 },
  { "name": "Senhora dos Remédios", "normalizedName": "senhora dos remedios", "lat": -21.03, "lon": -43.56 },
  { "name": "Sericita", "normalizedName": "sericita", "lat": -20.5, "lon": -42.44 },
  { "name": "Seritinga", "normalizedName": "seritinga", "lat": -21.9, "lon": -44.51 },
  { "name": "Serra Azul de Minas", "normalizedName": "serra azul de minas", "lat": -18.33, "lon": -43.18 },
  { "name": "Serra da Saudade", "normalizedName": "serra da saudade", "lat": -19.43, "lon": -45.79 },
  { "name": "Serra dos Aimorés", "normalizedName": "serra dos aimores", "lat": -17.75, "lon": -40.23 },
  { "name": "Serra do Salitre", "normalizedName": "serra do salitre", "lat": -19.11, "lon": -46.69 },
  { "name": "Serrania", "normalizedName": "serrania", "lat": -21.54, "lon": -46.04 },
  { "name": "Serranópolis de Minas", "normalizedName": "serranopolis de minas", "lat": -15.8, "lon": -42.88 },
  { "name": "Serranos", "normalizedName": "serranos", "lat": -21.84, "lon": -44.51 },
  { "name": "Serro", "normalizedName": "serro", "lat": -18.6, "lon": -43.37 },
  { "name": "Sete Lagoas", "normalizedName": "sete lagoas", "lat": -19.46, "lon": -44.24 },
  { "name": "Silveirânia", "normalizedName": "silveirania", "lat": -21.15, "lon": -43.21 },
  { "name": "Silvianópolis", "normalizedName": "silvianopolis", "lat": -22.04, "lon": -45.85 },
  { "name": "Simão Pereira", "normalizedName": "simao pereira", "lat": -21.97, "lon": -43.32 },
  { "name": "Simonésia", "normalizedName": "simonesia", "lat": -20.12, "lon": -42 },
  { "name": "Sobrália", "normalizedName": "sobralia", "lat": -19.24, "lon": -42.09 },
  { "name": "Soledade de Minas", "normalizedName": "soledade de minas", "lat": -22.05, "lon": -45.04 },
  { "name": "Tabuleiro", "normalizedName": "tabuleiro", "lat": -21.36, "lon": -43.25 },
  { "name": "Taiobeiras", "normalizedName": "taiobeiras", "lat": -15.8, "lon": -42.23 },
  { "name": "Taparuba", "normalizedName": "taparuba", "lat": -19.7, "lon": -41.6 },
  { "name": "Tapira", "normalizedName": "tapira", "lat": -19.92, "lon": -46.82 },
  { "name": "Tapiraí", "normalizedName": "tapirai", "lat": -19.89, "lon": -46.02 },
  { "name": "Taquaraçu de Minas", "normalizedName": "taquaracu de minas", "lat": -19.66, "lon": -43.68 },
  { "name": "Tarumirim", "normalizedName": "tarumirim", "lat": -19.28, "lon": -42 },
  { "name": "Teixeiras", "normalizedName": "teixeiras", "lat": -20.65, "lon": -42.85 },
  { "name": "Teófilo Otoni", "normalizedName": "teofilo otoni", "lat": -17.85, "lon": -41.5 },
  { "name": "Timóteo", "normalizedName": "timoteo", "lat": -19.58, "lon": -42.64 },
  { "name": "Tiradentes", "normalizedName": "tiradentes", "lat": -21.11, "lon": -44.17 },
  { "name": "Tiros", "normalizedName": "tiros", "lat": -19, "lon": -45.96 },
  { "name": "Tocantins", "normalizedName": "tocantins", "lat": -21.17, "lon": -43.01 },
  { "name": "Tocos do Moji", "normalizedName": "tocos do moji", "lat": -22.3, "lon": -46.18 },
  { "name": "Toledo", "normalizedName": "toledo", "lat": -22.74, "lon": -46.37 },
  { "name": "Tombos", "normalizedName": "tombos", "lat": -20.9, "lon": -42.02 },
  { "name": "Três Corações", "normalizedName": "tres coracoes", "lat": -21.69, "lon": -45.25 },
  { "name": "Três Marias", "normalizedName": "tres marias", "lat": -18.2, "lon": -45.23 },
  { "name": "Três Pontas", "normalizedName": "tres pontas", "lat": -21.36, "lon": -45.51 },
  { "name": "Tumiritinga", "normalizedName": "tumiritinga", "lat": -19, "lon": -41.64 },
  { "name": "Tupaciguara", "normalizedName": "tupaciguara", "lat": -18.59, "lon": -48.7 },
  { "name": "Turmalina", "normalizedName": "turmalina", "lat": -17.28, "lon": -42.73 },
  { "name": "Turvolândia", "normalizedName": "turvolandia", "lat": -21.84, "lon": -45.77 },
  { "name": "Ubá", "normalizedName": "uba", "lat": -21.12, "lon": -42.94 },
  { "name": "Ubaí", "normalizedName": "ubai", "lat": -16.27, "lon": -44.78 },
  { "name": "Ubaporanga", "normalizedName": "ubaporanga", "lat": -19.63, "lon": -42.08 },
  { "name": "Uberaba", "normalizedName": "uberaba", "lat": -19.74, "lon": -47.93 },
  { "name": "Uberlândia", "normalizedName": "uberlandia", "lat": -18.918, "lon": -48.277 },
  { "name": "Umburatiba", "normalizedName": "umburatiba", "lat": -17.25, "lon": -40.57 },
  { "name": "Unaí", "normalizedName": "unai", "lat": -16.35, "lon": -46.9 },
  { "name": "União de Minas", "normalizedName": "uniao de minas", "lat": -19.53, "lon": -50.33 },
  { "name": "Uruana de Minas", "normalizedName": "uruana de minas", "lat": -16.03, "lon": -46.29 },
  { "name": "Urucânia", "normalizedName": "urucania", "lat": -20.35, "lon": -42.75 },
  { "name": "Urucuia", "normalizedName": "urucuia", "lat": -15.99, "lon": -45.74 },
  { "name": "Vargem Alegre", "normalizedName": "vargem alegre", "lat": -19.56, "lon": -42.29 },
  { "name": "Vargem Bonita", "normalizedName": "vargem bonita", "lat": -20.32, "lon": -46.36 },
  { "name": "Vargem Grande do Rio Pardo", "normalizedName": "vargem grande do rio pardo", "lat": -15.35, "lon": -42.33 },
  { "name": "Varginha", "normalizedName": "varginha", "lat": -21.55, "lon": -45.43 },
  { "name": "Varjão de Minas", "normalizedName": "varjao de minas", "lat": -18.39, "lon": -45.98 },
  { "name": "Várzea da Palma", "normalizedName": "varzea da palma", "lat": -17.59, "lon": -44.73 },
  { "name": "Varzelândia", "normalizedName": "varzelandia", "lat": -15.7, "lon": -44.02 },
  { "name": "Vazante", "normalizedName": "vazante", "lat": -17.98, "lon": -46.89 },
  { "name": "Verdelândia", "normalizedName": "verdelandia", "lat": -15.51, "lon": -43.68 },
  { "name": "Veredinha", "normalizedName": "veredinha", "lat": -17.4, "lon": -42.75 },
  { "name": "Veríssimo", "normalizedName": "verissimo", "lat": -19.68, "lon": -48.35 },
  { "name": "Vermelho Novo", "normalizedName": "vermelho novo", "lat": -20.03, "lon": -42.27 },
  { "name": "Vespasiano", "normalizedName": "vespasiano", "lat": -19.69, "lon": -43.92 },
  { "name": "Viçosa", "normalizedName": "vicosa", "lat": -20.75, "lon": -42.87 },
  { "name": "Vieiras", "normalizedName": "vieiras", "lat": -20.91, "lon": -42.26 },
  { "name": "Mathias Lobato", "normalizedName": "mathias lobato", "lat": -18.59, "lon": -41.97 },
  { "name": "Virgem da Lapa", "normalizedName": "virgem da lapa", "lat": -16.8, "lon": -42.33 },
  { "name": "Virgínia", "normalizedName": "virginia", "lat": -22.32, "lon": -45.09 },
  { "name": "Virginópolis", "normalizedName": "virginopolis", "lat": -18.82, "lon": -42.71 },
  { "name": "Virgolândia", "normalizedName": "virgolandia", "lat": -18.45, "lon": -42.31 },
  { "name": "Visconde do Rio Branco", "normalizedName": "visconde do rio branco", "lat": -21, "lon": -42.84 },
  { "name": "Volta Grande", "normalizedName": "volta grande", "lat": -21.75, "lon": -42.53 },
  { "name": "Wenceslau Braz", "normalizedName": "wenceslau braz", "lat": -22.53, "lon": -45.36 }
]
