[
  { "name": "Abreu e Lima", "normalizedName": "abreu e lima", "lat": -7.91, "lon": -34.9 },
  { "name": "Afogados da Ingazeira", "normalizedName": "afogados da ingazeira", "lat": -7.75, "lon": -37.62 },
  { "name": "Afrânio", "normalizedName": "afranio", "lat": -8.51, "lon": -41 },
  { "name": "Agrestina", "normalizedName": "agrestina", "lat": -8.45, "lon": -35.95 },
  { "name": "Água Preta", "normalizedName": "agua preta", "lat": -8.7, "lon": -35.53 },
  { "name": "Águas Belas", "normalizedName": "aguas belas", "lat": -9.11, "lon": -37.12 },
  { "name": "Alagoinha", "normalizedName": "alagoinha", "lat": -8.46, "lon": -36.77 },
  { "name": "Aliança", "normalizedName": "alianca", "lat": -7.59, "lon": -35.22 },
  { "name": "Altinho", "normalizedName": "altinho", "lat": -8.49, "lon": -36.06 },
  { "name": "Amaraji", "normalizedName": "amaraji", "lat": -8.38, "lon": -35.45 },
  { "name": "Angelim", "normalizedName": "angelim", "lat": -8.89, "lon": -36.28 },
  { "name": "Araçoiaba", "normalizedName": "aracoiaba", "lat": -7.78, "lon": -35.08 },
  { "name": "Araripina", "normalizedName": "araripina", "lat": -7.57, "lon": -40.49 },
  { "name": "Arcoverde", "normalizedName": "arcoverde", "lat": -8.41, "lon": -37.05 },
  { "name": "Barra de Guabiraba", "normalizedName": "barra de guabiraba", "lat": -8.31, "lon": -35.65 },
  { "name": "Barreiros", "normalizedName": "barreiros", "lat": -8.82, "lon": -35.18 },
  { "name": "Belém de Maria", "normalizedName": "belem de maria", "lat": -8.62, "lon": -35.79 },
  { "name": "Belém do São Francisco", "normalizedName": "belem do sao francisco", "lat": -8.76, "lon": -38.96 },
  { "name": "Belo Jardim", "normalizedName": "belo jardim", "lat": -8.33, "lon": -36.42 },
  { "name": "Betânia", "normalizedName": "betania", "lat": -8.02, "lon": -38.03 },
  { "name": "Bezerros", "normalizedName": "bezerros", "lat": -8.23, "lon": -35.79 },
  { "name": "Bodocó", "normalizedName": "bodoco", "lat": -7.77, "lon": -39.94 },
  { "name": "Bom Conselho", "normalizedName": "bom conselho", "lat": -9.17, "lon": -36.68 },
  { "name": "Bom Jardim", "normalizedName": "bom jardim", "lat": -7.79, "lon": -35.58 },
  { "name": "Bonito", "normalizedName": "bonito", "lat": -8.47, "lon": -35.72 },
  { "name": "Brejão", "normalizedName": "brejao", "lat": -9.0, "lon": -36.5 },
  { "name": "Brejinho", "normalizedName": "brejinho", "lat": -7.34, "lon": -37.28 },
  { "name": "Brejo da Madre de Deus", "normalizedName": "brejo da madre de deus", "lat": -8.14, "lon": -36.37 },
  { "name": "Buenos Aires", "normalizedName": "buenos aires", "lat": -7.72, "lon": -35.33 },
  { "name": "Buíque", "normalizedName": "buique", "lat": -8.62, "lon": -37.15 },
  { "name": "Cabo de Santo Agostinho", "normalizedName": "cabo de santo agostinho", "lat": -8.28, "lon": -35.03 },
  { "name": "Cabrobó", "normalizedName": "cabrobo", "lat": -8.51, "lon": -39.31 },
  { "name": "Cachoeirinha", "normalizedName": "cachoeirinha", "lat": -8.49, "lon": -36.33 },
  { "name": "Caetés", "normalizedName": "caetes", "lat": -8.97, "lon": -36.62 },
  { "name": "Calçado", "normalizedName": "calcado", "lat": -8.93, "lon": -36.42 },
  { "name": "Calumbi", "normalizedName": "calumbi", "lat": -7.95, "lon": -38.15 },
  { "name": "Camaragibe", "normalizedName": "camaragibe", "lat": -8.02, "lon": -34.98 },
  { "name": "Camocim de São Félix", "normalizedName": "camocim de sao felix", "lat": -8.35, "lon": -35.76 },
  { "name": "Camutanga", "normalizedName": "camutanga", "lat": -7.42, "lon": -35.3 },
  { "name": "Canhotinho", "normalizedName": "canhotinho", "lat": -8.88, "lon": -36.19 },
  { "name": "Capoeiras", "normalizedName": "capoeiras", "lat": -8.84, "lon": -36.62 },
  { "name": "Carnaíba", "normalizedName": "carnaiba", "lat": -7.8, "lon": -37.79 },
  { "name": "Carnaubeira da Penha", "normalizedName": "carnaubeira da penha", "lat": -8.32, "lon": -38.74 },
  { "name": "Carpina", "normalizedName": "carpina", "lat": -7.84, "lon": -35.25 },
  { "name": "Caruaru", "normalizedName": "caruaru", "lat": -8.28, "lon": -35.97 },
  { "name": "Casinhas", "normalizedName": "casinhas", "lat": -7.73, "lon": -35.72 },
  { "name": "Catende", "normalizedName": "catende", "lat": -8.66, "lon": -35.71 },
  { "name": "Cedro", "normalizedName": "cedro", "lat": -7.7, "lon": -39.06 },
  { "name": "Chã de Alegria", "normalizedName": "cha de alegria", "lat": -8.0, "lon": -35.21 },
  { "name": "Chã Grande", "normalizedName": "cha grande", "lat": -8.24, "lon": -35.46 },
  { "name": "Condado", "normalizedName": "condado", "lat": -7.58, "lon": -35.1 },
  { "name": "Correntes", "normalizedName": "correntes", "lat": -9.12, "lon": -36.33 },
  { "name": "Cortês", "normalizedName": "cortes", "lat": -8.46, "lon": -35.54 },
  { "name": "Cumaru", "normalizedName": "cumaru", "lat": -8.0, "lon": -35.69 },
  { "name": "Cupira", "normalizedName": "cupira", "lat": -8.62, "lon": -35.95 },
  { "name": "Custódia", "normalizedName": "custodia", "lat": -8.08, "lon": -37.64 },
  { "name": "Dormentes", "normalizedName": "dormentes", "lat": -8.45, "lon": -40.77 },
  { "name": "Escada", "normalizedName": "escada", "lat": -8.35, "lon": -35.22 },
  { "name": "Exu", "normalizedName": "exu", "lat": -7.51, "lon": -39.72 },
  { "name": "Feira Nova", "normalizedName": "feira nova", "lat": -7.95, "lon": -35.39 },
  { "name": "Fernando de Noronha", "normalizedName": "fernando de noronha", "lat": -3.85, "lon": -32.42 },
  { "name": "Ferreiros", "normalizedName": "ferreiros", "lat": -7.45, "lon": -35.25 },
  { "name": "Flores", "normalizedName": "flores", "lat": -7.86, "lon": -38.0 },
  { "name": "Floresta", "normalizedName": "floresta", "lat": -8.0, "lon": -38.57 },
  { "name": "Frei Miguelinho", "normalizedName": "frei miguelinho", "lat": -7.94, "lon": -35.91 },
  { "name": "Gameleira", "normalizedName": "gameleira", "lat": -8.68, "lon": -35.34 },
  { "name": "Garanhuns", "normalizedName": "garanhuns", "lat": -8.89, "lon": -36.49 },
  { "name": "Glória do Goitá", "normalizedName": "gloria do goita", "lat": -8.0, "lon": -35.29 },
  { "name": "Goiana", "normalizedName": "goiana", "lat": -7.56, "lon": -35.0 },
  { "name": "Granito", "normalizedName": "granito", "lat": -7.71, "lon": -39.61 },
  { "name": "Gravatá", "normalizedName": "gravata", "lat": -8.2, "lon": -35.56 },
  { "name": "Iati", "normalizedName": "iati", "lat": -9.04, "lon": -36.88 },
  { "name": "Ibimirim", "normalizedName": "ibimirim", "lat": -8.54, "lon": -37.69 },
  { "name": "Ibirajuba", "normalizedName": "ibirajuba", "lat": -8.59, "lon": -36.21 },
  { "name": "Igarassu", "normalizedName": "igarassu", "lat": -7.83, "lon": -34.9 },
  { "name": "Iguaracy", "normalizedName": "iguaracy", "lat": -7.86, "lon": -37.54 },
  { "name": "Inajá", "normalizedName": "inaja", "lat": -8.9, "lon": -37.82 },
  { "name": "Ingazeira", "normalizedName": "ingazeira", "lat": -7.67, "lon": -37.46 },
  { "name": "Ipojuca", "normalizedName": "ipojuca", "lat": -8.39, "lon": -35.06 },
  { "name": "Ipubi", "normalizedName": "ipubi", "lat": -7.65, "lon": -40.15 },
  { "name": "Itacuruba", "normalizedName": "itacuruba", "lat": -8.82, "lon": -38.7 },
  { "name": "Itaíba", "normalizedName": "itaiba", "lat": -8.95, "lon": -37.42 },
  { "name": "Ilha de Itamaracá", "normalizedName": "ilha de itamaraca", "lat": -7.74, "lon": -34.82 },
  { "name": "Itambé", "normalizedName": "itambe", "lat": -7.42, "lon": -35.1 },
  { "name": "Itapetim", "normalizedName": "itapetim", "lat": -7.36, "lon": -37.19 },
  { "name": "Itapissuma", "normalizedName": "itapissuma", "lat": -7.77, "lon": -34.89 },
  { "name": "Itaquitinga", "normalizedName": "itaquitinga", "lat": -7.66, "lon": -35.1 },
  { "name": "Jaboatão dos Guararapes", "normalizedName": "jaboatao dos guararapes", "lat": -8.11, "lon": -35.01 },
  { "name": "Jaqueira", "normalizedName": "jaqueira", "lat": -8.72, "lon": -35.8 },
  { "name": "Jataúba", "normalizedName": "jatauba", "lat": -8.0, "lon": -36.5 },
  { "name": "Jatobá", "normalizedName": "jatoba", "lat": -9.18, "lon": -38.27 },
  { "name": "João Alfredo", "normalizedName": "joao alfredo", "lat": -7.85, "lon": -35.58 },
  { "name": "Joaquim Nabuco", "normalizedName": "joaquim nabuco", "lat": -8.62, "lon": -35.51 },
  { "name": "Jucati", "normalizedName": "jucati", "lat": -8.69, "lon": -36.47 },
  { "name": "Jupi", "normalizedName": "jupi", "lat": -8.72, "lon": -36.41 },
  { "name": "Jurema", "normalizedName": "jurema", "lat": -8.72, "lon": -36.08 },
  { "name": "Lagoa do Carro", "normalizedName": "lagoa do carro", "lat": -7.84, "lon": -35.31 },
  { "name": "Lagoa de Itaenga", "normalizedName": "lagoa de itaenga", "lat": -7.92, "lon": -35.29 },
  { "name": "Lagoa do Ouro", "normalizedName": "lagoa do ouro", "lat": -9.05, "lon": -36.45 },
  { "name": "Lagoa dos Gatos", "normalizedName": "lagoa dos gatos", "lat": -8.66, "lon": -35.89 },
  { "name": "Lagoa Grande", "normalizedName": "lagoa grande", "lat": -8.99, "lon": -40.27 },
  { "name": "Lajedo", "normalizedName": "lajedo", "lat": -8.66, "lon": -36.32 },
  { "name": "Limoeiro", "normalizedName": "limoeiro", "lat": -7.87, "lon": -35.45 },
  { "name": "Macaparana", "normalizedName": "macaparana", "lat": -7.56, "lon": -35.46 },
  { "name": "Machados", "normalizedName": "machados", "lat": -7.7, "lon": -35.52 },
  { "name": "Manari", "normalizedName": "manari", "lat": -9.01, "lon": -37.62 },
  { "name": "Maraial", "normalizedName": "maraial", "lat": -8.79, "lon": -35.84 },
  { "name": "Mirandiba", "normalizedName": "mirandiba", "lat": -8.11, "lon": -38.69 },
  { "name": "Moreno", "normalizedName": "moreno", "lat": -8.11, "lon": -35.09 },
  { "name": "Nazaré da Mata", "normalizedName": "nazare da mata", "lat": -7.74, "lon": -35.22 },
  { "name": "Olinda", "normalizedName": "olinda", "lat": -8.0, "lon": -34.85 },
  { "name": "Orobó", "normalizedName": "orobo", "lat": -7.74, "lon": -35.6 },
  { "name": "Orocó", "normalizedName": "oroco", "lat": -8.63, "lon": -39.6 },
  { "name": "Ouricuri", "normalizedName": "ouricuri", "lat": -7.88, "lon": -40.08 },
  { "name": "Palmares", "normalizedName": "palmares", "lat": -8.68, "lon": -35.59 },
  { "name": "Palmeirina", "normalizedName": "palmeirina", "lat": -9.0, "lon": -36.32 },
  { "name": "Panelas", "normalizedName": "panelas", "lat": -8.68, "lon": -36.03 },
  { "name": "Paranatama", "normalizedName": "paranatama", "lat": -8.92, "lon": -36.63 },
  { "name": "Parnamirim", "normalizedName": "parnamirim", "lat": -8.09, "lon": -39.57 },
  { "name": "Passira", "normalizedName": "passira", "lat": -7.99, "lon": -35.58 },
  { "name": "Paudalho", "normalizedName": "paudalho", "lat": -7.89, "lon": -35.17 },
  { "name": "Paulista", "normalizedName": "paulista", "lat": -7.94, "lon": -34.87 },
  { "name": "Pedra", "normalizedName": "pedra", "lat": -8.5, "lon": -36.93 },
  { "name": "Pesqueira", "normalizedName": "pesqueira", "lat": -8.35, "lon": -36.69 },
  { "name": "Petrolândia", "normalizedName": "petrolandia", "lat": -8.98, "lon": -38.22 },
  { "name": "Petrolina", "normalizedName": "petrolina", "lat": -9.39, "lon": -40.5 },
  { "name": "Poção", "normalizedName": "pocao", "lat": -8.49, "lon": -36.7 },
  { "name": "Pombos", "normalizedName": "pombos", "lat": -8.14, "lon": -35.39 },
  { "name": "Primavera", "normalizedName": "primavera", "lat": -8.36, "lon": -35.34 },
  { "name": "Quipapá", "normalizedName": "quipapa", "lat": -8.82, "lon": -36.07 },
  { "name": "Quixaba", "normalizedName": "quixaba", "lat": -7.69, "lon": -37.89 },
  { "name": "Recife", "normalizedName": "recife", "lat": -8.05, "lon": -34.88 },
  { "name": "Riacho das Almas", "normalizedName": "riacho das almas", "lat": -8.13, "lon": -35.86 },
  { "name": "Ribeirão", "normalizedName": "ribeirao", "lat": -8.51, "lon": -35.37 },
  { "name": "Rio Formoso", "normalizedName": "rio formoso", "lat": -8.66, "lon": -35.15 },
  { "name": "Sairé", "normalizedName": "saire", "lat": -8.32, "lon": -35.7 },
  { "name": "Salgadinho", "normalizedName": "salgadinho", "lat": -7.91, "lon": -35.65 },
  { "name": "Salgueiro", "normalizedName": "salgueiro", "lat": -8.06, "lon": -39.12 },
  { "name": "Saloá", "normalizedName": "saloa", "lat": -8.96, "lon": -36.7 },
  { "name": "Sanharó", "normalizedName": "sanharo", "lat": -8.36, "lon": -36.56 },
  { "name": "Santa Cruz", "normalizedName": "santa cruz", "lat": -7.86, "lon": -39.9 },
  { "name": "Santa Cruz da Baixa Verde", "normalizedName": "santa cruz da baixa verde", "lat": -7.81, "lon": -38.15 },
  { "name": "Santa Cruz do Capibaribe", "normalizedName": "santa cruz do capibaribe", "lat": -7.95, "lon": -36.2 },
  { "name": "Santa Filomena", "normalizedName": "santa filomena", "lat": -8.13, "lon": -40.57 },
  { "name": "Santa Maria da Boa Vista", "normalizedName": "santa maria da boa vista", "lat": -8.8, "lon": -39.82 },
  { "name": "Santa Maria do Cambucá", "normalizedName": "santa maria do cambuca", "lat": -7.83, "lon": -35.89 },
  { "name": "Santa Terezinha", "normalizedName": "santa terezinha", "lat": -7.38, "lon": -37.45 },
  { "name": "São Benedito do Sul", "normalizedName": "sao benedito do sul", "lat": -8.84, "lon": -35.94 },
  { "name": "São Bento do Una", "normalizedName": "sao bento do una", "lat": -8.52, "lon": -36.55 },
  { "name": "São Caitano", "normalizedName": "sao caitano", "lat": -8.33, "lon": -36.11 },
  { "name": "São João", "normalizedName": "sao joao", "lat": -8.87, "lon": -36.36 },
  { "name": "São Joaquim do Monte", "normalizedName": "sao joaquim do monte", "lat": -8.43, "lon": -35.85 },
  { "name": "São José da Coroa Grande", "normalizedName": "sao jose da coroa grande", "lat": -8.89, "lon": -35.15 },
  { "name": "São José do Belmonte", "normalizedName": "sao jose do belmonte", "lat": -7.86, "lon": -38.75 },
  { "name": "São José do Egito", "normalizedName": "sao jose do egito", "lat": -7.48, "lon": -37.27 },
  { "name": "São Lourenço da Mata", "normalizedName": "sao lourenco da mata", "lat": -8.0, "lon": -35.02 },
  { "name": "São Vicente Ferrer", "normalizedName": "sao vicente ferrer", "lat": -7.6, "lon": -35.48 },
  { "name": "Serra Talhada", "normalizedName": "serra talhada", "lat": -7.99, "lon": -38.29 },
  { "name": "Serrita", "normalizedName": "serrita", "lat": -7.94, "lon": -39.29 },
  { "name": "Sertânia", "normalizedName": "sertania", "lat": -8.06, "lon": -37.26 },
  { "name": "Sirinhaém", "normalizedName": "sirinhaem", "lat": -8.59, "lon": -35.11 },
  { "name": "Moreilândia", "normalizedName": "moreilandia", "lat": -7.63, "lon": -39.55 },
  { "name": "Solidão", "normalizedName": "solidao", "lat": -7.59, "lon": -37.64 },
  { "name": "Surubim", "normalizedName": "surubim", "lat": -7.83, "lon": -35.75 },
  { "name": "Tabira", "normalizedName": "tabira", "lat": -7.59, "lon": -37.54 },
  { "name": "Tacaimbó", "normalizedName": "tacaimbo", "lat": -8.3, "lon": -36.29 },
  { "name": "Tacaratu", "normalizedName": "tacaratu", "lat": -9.1, "lon": -38.14 },
  { "name": "Tamandaré", "normalizedName": "tamandare", "lat": -8.76, "lon": -35.1 },
  { "name": "Taquaritinga do Norte", "normalizedName": "taquaritinga do norte", "lat": -7.9, "lon": -36.04 },
  { "name": "Terezinha", "normalizedName": "terezinha", "lat": -9.03, "lon": -36.63 },
  { "name": "Terra Nova", "normalizedName": "terra nova", "lat": -8.23, "lon": -39.38 },
  { "name": "Timbaúba", "normalizedName": "timbauba", "lat": -7.51, "lon": -35.31 },
  { "name": "Toritama", "normalizedName": "toritama", "lat": -8.0, "lon": -36.06 },
  { "name": "Tracunhaém", "normalizedName": "tracunhaem", "lat": -7.8, "lon": -35.23 },
  { "name": "Trindade", "normalizedName": "trindade", "lat": -7.76, "lon": -40.26 },
  { "name": "Triunfo", "normalizedName": "triunfo", "lat": -7.83, "lon": -38.1 },
  { "name": "Tupanatinga", "normalizedName": "tupanatinga", "lat": -8.75, "lon": -37.34 },
  { "name": "Tuparetama", "normalizedName": "tuparetama", "lat": -7.6, "lon": -37.32 },
  { "name": "Venturosa", "normalizedName": "venturosa", "lat": -8.58, "lon": -36.88 },
  { "name": "Verdejante", "normalizedName": "verdejante", "lat": -7.92, "lon": -38.97 },
  { "name": "Vertente do Lério", "normalizedName": "vertente do lerio", "lat": -7.76, "lon": -35.78 },
  { "name": "Vertentes", "normalizedName": "vertentes", "lat": -7.89, "lon": -35.83 },
  { "name": "Vicência", "normalizedName": "vicencia", "lat": -7.65, "lon": -35.32 },
  { "name": "Vitória de Santo Antão", "normalizedName": "vitoria de santo antao", "lat": -8.11, "lon": -35.29 },
  { "name": "Xexéu", "normalizedName": "xexeu", "lat": -8.8, "lon": -35.61 }
]