
[
  { "name": "Acari", "normalizedName": "acari", "lat": -6.43, "lon": -36.64 },
  { "name": "Açu", "normalizedName": "acu", "lat": -5.57, "lon": -36.9 },
  { "name": "Afonso Bezerra", "normalizedName": "afonso bezerra", "lat": -5.49, "lon": -36.5 },
  { "name": "Água Nova", "normalizedName": "agua nova", "lat": -6.21, "lon": -38.3 },
  { "name": "Alexandria", "normalizedName": "alexandria", "lat": -6.41, "lon": -38.01 },
  { "name": "Almino Afonso", "normalizedName": "almino afonso", "lat": -6.16, "lon": -37.76 },
  { "name": "Alto do Rodrigues", "normalizedName": "alto do rodrigues", "lat": -5.29, "lon": -36.76 },
  { "name": "Angicos", "normalizedName": "angicos", "lat": -5.65, "lon": -36.6 },
  { "name": "Antônio Martins", "normalizedName": "antonio martins", "lat": -6.21, "lon": -37.89 },
  { "name": "Apodi", "normalizedName": "apodi", "lat": -5.66, "lon": -37.79 },
  { "name": "Areia Branca", "normalizedName": "areia branca", "lat": -4.95, "lon": -37.13 },
  { "name": "Arês", "normalizedName": "ares", "lat": -6.19, "lon": -35.16 },
  { "name": "Augusto Severo", "normalizedName": "augusto severo", "lat": -5.96, "lon": -37.31 },
  { "name": "Baía Formosa", "normalizedName": "baia formosa", "lat": -6.37, "lon": -35.0 },
  { "name": "Baraúna", "normalizedName": "barauna", "lat": -5.08, "lon": -37.61 },
  { "name": "Barcelona", "normalizedName": "barcelona", "lat": -6.07, "lon": -35.91 },
  { "name": "Bento Fernandes", "normalizedName": "bento fernandes", "lat": -5.73, "lon": -35.79 },
  { "name": "Bodó", "normalizedName": "bodo", "lat": -6.0, "lon": -36.42 },
  { "name": "Bom Jesus", "normalizedName": "bom jesus", "lat": -5.99, "lon": -35.58 },
  { "name": "Brejinho", "normalizedName": "brejinho", "lat": -6.19, "lon": -35.34 },
  { "name": "Caiçara do Norte", "normalizedName": "caicara do norte", "lat": -5.07, "lon": -36.08 },
  { "name": "Caiçara do Rio do Vento", "normalizedName": "caicara do rio do vento", "lat": -5.75, "lon": -36.36 },
  { "name": "Caicó", "normalizedName": "caico", "lat": -6.45, "lon": -37.09 },
  { "name": "Campo Redondo", "normalizedName": "campo redondo", "lat": -6.29, "lon": -36.2 },
  { "name": "Canguaretama", "normalizedName": "canguaretama", "lat": -6.38, "lon": -35.13 },
  { "name": "Caraúbas", "normalizedName": "caraubas", "lat": -5.79, "lon": -37.55 },
  { "name": "Carnaúba dos Dantas", "normalizedName": "carnauba dos dantas", "lat": -6.55, "lon": -36.59 },
  { "name": "Carnaubais", "normalizedName": "carnaubais", "lat": -5.34, "lon": -36.83 },
  { "name": "Ceará-Mirim", "normalizedName": "ceara-mirim", "lat": -5.63, "lon": -35.43 },
  { "name": "Cerro Corá", "normalizedName": "cerro cora", "lat": -6.16, "lon": -36.34 },
  { "name": "Coronel Ezequiel", "normalizedName": "coronel ezequiel", "lat": -6.37, "lon": -36.23 },
  { "name": "Coronel João Pessoa", "normalizedName": "coronel joao pessoa", "lat": -6.29, "lon": -38.45 },
  { "name": "Cruzeta", "normalizedName": "cruzeta", "lat": -6.41, "lon": -36.77 },
  { "name": "Currais Novos", "normalizedName": "currais novos", "lat": -6.26, "lon": -36.51 },
  { "name": "Doutor Severiano", "normalizedName": "doutor severiano", "lat": -6.11, "lon": -38.25 },
  { "name": "Parnamirim", "normalizedName": "parnamirim", "lat": -5.91, "lon": -35.26 },
  { "name": "Encanto", "normalizedName": "encanto", "lat": -6.07, "lon": -38.31 },
  { "name": "Equador", "normalizedName": "equador", "lat": -6.95, "lon": -36.75 },
  { "name": "Espírito Santo", "normalizedName": "espirito santo", "lat": -6.29, "lon": -35.3 },
  { "name": "Extremoz", "normalizedName": "extremoz", "lat": -5.7, "lon": -35.3 },
  { "name": "Felipe Guerra", "normalizedName": "felipe guerra", "lat": -5.59, "lon": -37.69 },
  { "name": "Fernando Pedroza", "normalizedName": "fernando pedroza", "lat": -5.68, "lon": -36.58 },
  { "name": "Florânia", "normalizedName": "florania", "lat": -6.13, "lon": -36.82 },
  { "name": "Francisco Dantas", "normalizedName": "francisco dantas", "lat": -6.06, "lon": -37.89 },
  { "name": "Frutuoso Gomes", "normalizedName": "frutuoso gomes", "lat": -6.11, "lon": -37.83 },
  { "name": "Galinhos", "normalizedName": "galinhos", "lat": -5.09, "lon": -36.26 },
  { "name": "Goianinha", "normalizedName": "goianinha", "lat": -6.26, "lon": -35.2 },
  { "name": "Governador Dix-Sept Rosado", "normalizedName": "governador dix-sept rosado", "lat": -5.45, "lon": -37.52 },
  { "name": "Grossos", "normalizedName": "grossos", "lat": -4.96, "lon": -37.17 },
  { "name": "Guamaré", "normalizedName": "guamare", "lat": -5.1, "lon": -36.32 },
  { "name": "Ielmo Marinho", "normalizedName": "ielmo marinho", "lat": -5.8, "lon": -35.66 },
  { "name": "Ipanguaçu", "normalizedName": "ipanguacu", "lat": -5.49, "lon": -36.85 },
  { "name": "Ipueira", "normalizedName": "ipueira", "lat": -6.64, "lon": -37.15 },
  { "name": "Itajá", "normalizedName": "itaja", "lat": -5.73, "lon": -36.85 },
  { "name": "Itaú", "normalizedName": "itau", "lat": -5.8, "lon": -37.95 },
  { "name": "Jaçanã", "normalizedName": "jacana", "lat": -6.44, "lon": -36.21 },
  { "name": "Jandaíra", "normalizedName": "jandaira", "lat": -5.43, "lon": -36.03 },
  { "name": "Janduís", "normalizedName": "janduis", "lat": -6.01, "lon": -37.41 },
  { "name": "Januário Cicco", "normalizedName": "januario cicco", "lat": -6.15, "lon": -35.69 },
  { "name": "Japi", "normalizedName": "japi", "lat": -6.38, "lon": -35.91 },
  { "name": "Jardim de Angicos", "normalizedName": "jardim de angicos", "lat": -5.67, "lon": -36.16 },
  { "name": "Jardim de Piranhas", "normalizedName": "jardim de piranhas", "lat": -6.58, "lon": -37.34 },
  { "name": "Jardim do Seridó", "normalizedName": "jardim do serido", "lat": -6.57, "lon": -36.79 },
  { "name": "João Câmara", "normalizedName": "joao camara", "lat": -5.54, "lon": -35.82 },
  { "name": "João Dias", "normalizedName": "joao dias", "lat": -6.21, "lon": -37.95 },
  { "name": "José da Penha", "normalizedName": "jose da penha", "lat": -6.34, "lon": -38.3 },
  { "name": "Jucurutu", "normalizedName": "jucurutu", "lat": -6.03, "lon": -37.02 },
  { "name": "Jundiá", "normalizedName": "jundia", "lat": -6.25, "lon": -35.43 },
  { "name": "Lagoa d'Anta", "normalizedName": "lagoa d'anta", "lat": -6.19, "lon": -35.63 },
  { "name": "Lagoa de Pedras", "normalizedName": "lagoa de pedras", "lat": -6.14, "lon": -35.85 },
  { "name": "Lagoa de Velhos", "normalizedName": "lagoa de velhos", "lat": -5.87, "lon": -36.01 },
  { "name": "Lagoa Nova", "normalizedName": "lagoa nova", "lat": -6.15, "lon": -36.46 },
  { "name": "Lagoa Salgada", "normalizedName": "lagoa salgada", "lat": -6.04, "lon": -35.47 },
  { "name": "Lajes", "normalizedName": "lajes", "lat": -5.7, "lon": -36.24 },
  { "name": "Lajes Pintadas", "normalizedName": "lajes pintadas", "lat": -6.13, "lon": -36.11 },
  { "name": "Lucrécia", "normalizedName": "lucrecia", "lat": -6.07, "lon": -37.78 },
  { "name": "Luís Gomes", "normalizedName": "luis gomes", "lat": -6.41, "lon": -38.39 },
  { "name": "Macaíba", "normalizedName": "macaiba", "lat": -5.85, "lon": -35.35 },
  { "name": "Macau", "normalizedName": "macau", "lat": -5.11, "lon": -36.63 },
  { "name": "Major Sales", "normalizedName": "major sales", "lat": -6.41, "lon": -38.32 },
  { "name": "Marcelino Vieira", "normalizedName": "marcelino vieira", "lat": -6.36, "lon": -38.16 },
  { "name": "Martins", "normalizedName": "martins", "lat": -6.08, "lon": -37.91 },
  { "name": "Maxaranguape", "normalizedName": "maxaranguape", "lat": -5.54, "lon": -35.37 },
  { "name": "Messias Targino", "normalizedName": "messias targino", "lat": -6.07, "lon": -37.45 },
  { "name": "Montanhas", "normalizedName": "montanhas", "lat": -6.47, "lon": -35.29 },
  { "name": "Monte Alegre", "normalizedName": "monte alegre", "lat": -6.06, "lon": -35.32 },
  { "name": "Monte das Gameleiras", "normalizedName": "monte das gameleiras", "lat": -6.43, "lon": -35.79 },
  { "name": "Mossoró", "normalizedName": "mossoro", "lat": -5.18, "lon": -37.34 },
  { "name": "Natal", "normalizedName": "natal", "lat": -5.79, "lon": -35.2 },
  { "name": "Nísia Floresta", "normalizedName": "nisia floresta", "lat": -6.09, "lon": -35.2 },
  { "name": "Nova Cruz", "normalizedName": "nova cruz", "lat": -6.47, "lon": -35.43 },
  { "name": "Olho-d'Água do Borges", "normalizedName": "olho-d'agua do borges", "lat": -5.99, "lon": -37.66 },
  { "name": "Ouro Branco", "normalizedName": "ouro branco", "lat": -6.68, "lon": -36.94 },
  { "name": "Paraná", "normalizedName": "parana", "lat": -6.44, "lon": -38.29 },
  { "name": "Paraú", "normalizedName": "parau", "lat": -5.78, "lon": -37.1 },
  { "name": "Parazinho", "normalizedName": "parazinho", "lat": -5.22, "lon": -35.85 },
  { "name": "Parelhas", "normalizedName": "parelhas", "lat": -6.68, "lon": -36.65 },
  { "name": "Rio do Fogo", "normalizedName": "rio do fogo", "lat": -5.27, "lon": -35.38 },
  { "name": "Passa e Fica", "normalizedName": "passa e fica", "lat": -6.5, "lon": -35.61 },
  { "name": "Passagem", "normalizedName": "passagem", "lat": -6.21, "lon": -35.49 },
  { "name": "Patu", "normalizedName": "patu", "lat": -6.1, "lon": -37.64 },
  { "name": "Santa Maria", "normalizedName": "santa maria", "lat": -5.87, "lon": -35.91 },
  { "name": "Pau dos Ferros", "normalizedName": "pau dos ferros", "lat": -6.11, "lon": -38.2 },
  { "name": "Pedra Grande", "normalizedName": "pedra grande", "lat": -5.22, "lon": -35.75 },
  { "name": "Pedra Preta", "normalizedName": "pedra preta", "lat": -5.61, "lon": -36.11 },
  { "name": "Pedro Avelino", "normalizedName": "pedro avelino", "lat": -5.51, "lon": -36.31 },
  { "name": "Pedro Velho", "normalizedName": "pedro velho", "lat": -6.46, "lon": -35.22 },
  { "name": "Pendências", "normalizedName": "pendencias", "lat": -5.26, "lon": -36.72 },
  { "name": "Pilões", "normalizedName": "piloes", "lat": -6.26, "lon": -38.06 },
  { "name": "Poço Branco", "normalizedName": "poco branco", "lat": -5.61, "lon": -35.66 },
  { "name": "Portalegre", "normalizedName": "portalegre", "lat": -6.02, "lon": -37.99 },
  { "name": "Porto do Mangue", "normalizedName": "porto do mangue", "lat": -5.06, "lon": -36.78 },
  { "name": "Presidente Juscelino", "normalizedName": "presidente juscelino", "lat": -5.73, "lon": -35.53 },
  { "name": "Pureza", "normalizedName": "pureza", "lat": -5.46, "lon": -35.56 },
  { "name": "Rafael Fernandes", "normalizedName": "rafael fernandes", "lat": -6.18, "lon": -38.23 },
  { "name": "Rafael Godeiro", "normalizedName": "rafael godeiro", "lat": -6.0, "lon": -37.7 },
  { "name": "Riacho da Cruz", "normalizedName": "riacho da cruz", "lat": -5.93, "lon": -37.91 },
  { "name": "Riacho de Santana", "normalizedName": "riacho de santana", "lat": -6.15, "lon": -38.38 },
  { "name": "Riachuelo", "normalizedName": "riachuelo", "lat": -5.85, "lon": -35.8 },
  { "name": "Rodolfo Fernandes", "normalizedName": "rodolfo fernandes", "lat": -5.87, "lon": -37.83 },
  { "name": "Tibau", "normalizedName": "tibau", "lat": -4.83, "lon": -37.25 },
  { "name": "Ruy Barbosa", "normalizedName": "ruy barbosa", "lat": -6.03, "lon": -35.98 },
  { "name": "Santa Cruz", "normalizedName": "santa cruz", "lat": -6.22, "lon": -36.02 },
  { "name": "Santana do Matos", "normalizedName": "santana do matos", "lat": -5.95, "lon": -36.68 },
  { "name": "Santana do Seridó", "normalizedName": "santana do serido", "lat": -6.76, "lon": -36.72 },
  { "name": "Santo Antônio", "normalizedName": "santo antonio", "lat": -6.31, "lon": -35.48 },
  { "name": "São Bento do Norte", "normalizedName": "sao bento do norte", "lat": -5.08, "lon": -36.01 },
  { "name": "São Bento do Trairí", "normalizedName": "sao bento do trairi", "lat": -6.32, "lon": -36.11 },
  { "name": "São Fernando", "normalizedName": "sao fernando", "lat": -6.37, "lon": -37.16 },
  { "name": "São Francisco do Oeste", "normalizedName": "sao francisco do oeste", "lat": -6.16, "lon": -38.08 },
  { "name": "São Gonçalo do Amarante", "normalizedName": "sao goncalo do amarante", "lat": -5.79, "lon": -35.32 },
  { "name": "São João do Sabugi", "normalizedName": "sao joao do sabugi", "lat": -6.74, "lon": -37.21 },
  { "name": "São José de Mipibu", "normalizedName": "sao jose de mipibu", "lat": -6.08, "lon": -35.24 },
  { "name": "São José do Campestre", "normalizedName": "sao jose do campestre", "lat": -6.31, "lon": -35.7 },
  { "name": "São José do Seridó", "normalizedName": "sao jose do serido", "lat": -6.44, "lon": -36.88 },
  { "name": "São Miguel", "normalizedName": "sao miguel", "lat": -6.21, "lon": -38.5 },
  { "name": "São Miguel do Gostoso", "normalizedName": "sao miguel do gostoso", "lat": -5.12, "lon": -35.63 },
  { "name": "São Paulo do Potengi", "normalizedName": "sao paulo do potengi", "lat": -5.9, "lon": -35.76 },
  { "name": "São Pedro", "normalizedName": "sao pedro", "lat": -5.88, "lon": -35.61 },
  { "name": "São Rafael", "normalizedName": "sao rafael", "lat": -5.8, "lon": -36.88 },
  { "name": "São Tomé", "normalizedName": "sao tome", "lat": -6.04, "lon": -36.08 },
  { "name": "São Vicente", "normalizedName": "sao vicente", "lat": -6.22, "lon": -36.8 },
  { "name": "Senador Elói de Souza", "normalizedName": "senador eloi de souza", "lat": -6.06, "lon": -35.77 },
  { "name": "Senador Georgino Avelino", "normalizedName": "senador georgino avelino", "lat": -6.16, "lon": -35.1 },
  { "name": "Serra de São Bento", "normalizedName": "serra de sao bento", "lat": -6.4, "lon": -35.7 },
  { "name": "Serra do Mel", "normalizedName": "serra do mel", "lat": -5.32, "lon": -37.04 },
  { "name": "Serra Negra do Norte", "normalizedName": "serra negra do norte", "lat": -6.65, "lon": -37.29 },
  { "name": "Serrinha", "normalizedName": "serrinha", "lat": -6.31, "lon": -35.4 },
  { "name": "Serrinha dos Pintos", "normalizedName": "serrinha dos pintos", "lat": -6.1, "lon": -37.98 },
  { "name": "Severiano Melo", "normalizedName": "severiano melo", "lat": -5.83, "lon": -37.94 },
  { "name": "Sítio Novo", "normalizedName": "sitio novo", "lat": -6.11, "lon": -36.04 },
  { "name": "Taboleiro Grande", "normalizedName": "taboleiro grande", "lat": -6.2, "lon": -37.98 },
  { "name": "Taipu", "normalizedName": "taipu", "lat": -5.61, "lon": -35.59 },
  { "name": "Tangará", "normalizedName": "tangara", "lat": -6.24, "lon": -35.8 },
  { "name": "Tenente Ananias", "normalizedName": "tenente ananias", "lat": -6.46, "lon": -38.16 },
  { "name": "Tenente Laurentino Cruz", "normalizedName": "tenente laurentino cruz", "lat": -6.14, "lon": -36.71 },
  { "name": "Tibau do Sul", "normalizedName": "tibau do sul", "lat": -6.18, "lon": -35.05 },
  { "name": "Timbaúba dos Batistas", "normalizedName": "timbauba dos batistas", "lat": -6.47, "lon": -37.14 },
  { "name": "Touros", "normalizedName": "touros", "lat": -5.2, "lon": -35.46 },
  { "name": "Triunfo Potiguar", "normalizedName": "triunfo potiguar", "lat": -6.0, "lon": -37.19 },
  { "name": "Umarizal", "normalizedName": "umarizal", "lat": -6.04, "lon": -37.67 },
  { "name": "Upanema", "normalizedName": "upanema", "lat": -5.64, "lon": -37.25 },
  { "name": "Várzea", "normalizedName": "varzea", "lat": -6.3, "lon": -35.36 },
  { "name": "Venha-Ver", "normalizedName": "venha-ver", "lat": -6.34, "lon": -38.49 },
  { "name": "Vera Cruz", "normalizedName": "vera cruz", "lat": -6.02, "lon": -35.42 },
  { "name": "Viçosa", "normalizedName": "vicosa", "lat": -6.0, "lon": -37.98 },
  { "name": "Vila Flor", "normalizedName": "vila flor", "lat": -6.26, "lon": -35.08 }
]
