[
  { "name": "Aceguá", "normalizedName": "acegua", "lat": -31.865, "lon": -54.164 },
  { "name": "Água Santa", "normalizedName": "agua santa", "lat": -28.171, "lon": -52.033 },
  { "name": "Agudo", "normalizedName": "agudo", "lat": -29.644, "lon": -53.241 },
  { "name": "Ajuricaba", "normalizedName": "ajuricaba", "lat": -28.232, "lon": -53.774 },
  { "name": "Alecrim", "normalizedName": "alecrim", "lat": -27.656, "lon": -54.764 },
  { "name": "Alegrete", "normalizedName": "alegrete", "lat": -29.782, "lon": -55.791 },
  { "name": "Alegria", "normalizedName": "alegria", "lat": -27.834, "lon": -54.062 },
  { "name": "Almirante Tamandaré do Sul", "normalizedName": "almirante tamandare do sul", "lat": -28.118, "lon": -52.923 },
  { "name": "Alpestre", "normalizedName": "alpestre", "lat": -27.248, "lon": -53.033 },
  { "name": "Alto Alegre", "normalizedName": "alto alegre", "lat": -28.775, "lon": -53.003 },
  { "name": "Alto Feliz", "normalizedName": "alto feliz", "lat": -29.39, "lon": -51.312 },
  { "name": "Alvorada", "normalizedName": "alvorada", "lat": -29.991, "lon": -51.082 },
  { "name": "Amaral Ferrador", "normalizedName": "amaral ferrador", "lat": -30.88, "lon": -52.25 },
  { "name": "Ametista do Sul", "normalizedName": "ametista do sul", "lat": -27.359, "lon": -53.181 },
  { "name": "André da Rocha", "normalizedName": "andre da rocha", "lat": -28.625, "lon": -51.579 },
  { "name": "Anta Gorda", "normalizedName": "anta gorda", "lat": -28.97, "lon": -52.008 },
  { "name": "Antônio Prado", "normalizedName": "antonio prado", "lat": -28.857, "lon": -51.282 },
  { "name": "Arambaré", "normalizedName": "arambare", "lat": -30.91, "lon": -51.503 },
  { "name": "Araricá", "normalizedName": "ararica", "lat": -29.615, "lon": -50.925 },
  { "name": "Aratiba", "normalizedName": "aratiba", "lat": -27.394, "lon": -52.3 },
  { "name": "Arroio do Meio", "normalizedName": "arroio do meio", "lat": -29.4, "lon": -51.947 },
  { "name": "Arroio do Padre", "normalizedName": "arroio do padre", "lat": -31.428, "lon": -52.482 },
  { "name": "Arroio do Sal", "normalizedName": "arroio do sal", "lat": -29.549, "lon": -49.886 },
  { "name": "Arroio do Tigre", "normalizedName": "arroio do tigre", "lat": -29.335, "lon": -53.093 },
  { "name": "Arroio dos Ratos", "normalizedName": "arroio dos ratos", "lat": -30.08, "lon": -51.728 },
  { "name": "Arroio Grande", "normalizedName": "arroio grande", "lat": -32.235, "lon": -52.576 },
  { "name": "Arvorezinha", "normalizedName": "arvorezinha", "lat": -28.873, "lon": -52.176 },
  { "name": "Augusto Pestana", "normalizedName": "augusto pestana", "lat": -28.517, "lon": -53.626 },
  { "name": "Áurea", "normalizedName": "aurea", "lat": -27.689, "lon": -52.046 },
  { "name": "Bagé", "normalizedName": "bage", "lat": -31.331, "lon": -54.106 },
  { "name": "Balneário Pinhal", "normalizedName": "balneario pinhal", "lat": -30.245, "lon": -50.219 },
  { "name": "Barão", "normalizedName": "barao", "lat": -29.376, "lon": -51.488 },
  { "name": "Barão de Cotegipe", "normalizedName": "barao de cotegipe", "lat": -27.618, "lon": -52.368 },
  { "name": "Barão do Triunfo", "normalizedName": "barao do triunfo", "lat": -30.388, "lon": -51.713 },
  { "name": "Barra do Guarita", "normalizedName": "barra do guarita", "lat": -27.189, "lon": -53.716 },
  { "name": "Barra do Quaraí", "normalizedName": "barra do quarai", "lat": -30.203, "lon": -57.551 },
  { "name": "Barra do Ribeiro", "normalizedName": "barra do ribeiro", "lat": -30.292, "lon": -51.301 },
  { "name": "Barra do Rio Azul", "normalizedName": "barra do rio azul", "lat": -27.391, "lon": -52.41 },
  { "name": "Barra Funda", "normalizedName": "barra funda", "lat": -27.91, "lon": -53.033 },
  { "name": "Barracão", "normalizedName": "barracao", "lat": -27.67, "lon": -51.46 },
  { "name": "Barros Cassal", "normalizedName": "barros cassal", "lat": -28.966, "lon": -52.585 },
  { "name": "Benjamin Constant do Sul", "normalizedName": "benjamin constant do sul", "lat": -27.51, "lon": -52.61 },
  { "name": "Bento Gonçalves", "normalizedName": "bento goncalves", "lat": -29.171, "lon": -51.519 },
  { "name": "Boa Vista das Missões", "normalizedName": "boa vista das missoes", "lat": -27.65, "lon": -53.3 },
  { "name": "Boa Vista do Buricá", "normalizedName": "boa vista do burica", "lat": -27.669, "lon": -54.116 },
  { "name": "Boa Vista do Cadeado", "normalizedName": "boa vista do cadeado", "lat": -28.57, "lon": -53.81 },
  { "name": "Boa Vista do Incra", "normalizedName": "boa vista do incra", "lat": -28.7, "lon": -53.48 },
  { "name": "Boa Vista do Sul", "normalizedName": "boa vista do sul", "lat": -29.23, "lon": -51.65 },
  { "name": "Bom Jesus", "normalizedName": "bom jesus", "lat": -28.67, "lon": -50.41 },
  { "name": "Bom Princípio", "normalizedName": "bom principio", "lat": -29.49, "lon": -51.35 },
  { "name": "Bom Progresso", "normalizedName": "bom progresso", "lat": -27.49, "lon": -53.88 },
  { "name": "Bom Retiro do Sul", "normalizedName": "bom retiro do sul", "lat": -29.61, "lon": -51.95 },
  { "name": "Boqueirão do Leão", "normalizedName": "boqueirao do leao", "lat": -29.35, "lon": -52.41 },
  { "name": "Bossoroca", "normalizedName": "bossoroca", "lat": -28.73, "lon": -54.91 },
  { "name": "Bozano", "normalizedName": "bozano", "lat": -28.37, "lon": -53.76 },
  { "name": "Braga", "normalizedName": "braga", "lat": -27.61, "lon": -53.75 },
  { "name": "Brochier", "normalizedName": "brochier", "lat": -29.58, "lon": -51.62 },
  { "name": "Butiá", "normalizedName": "butia", "lat": -30.11, "lon": -51.96 },
  { "name": "Caçapava do Sul", "normalizedName": "cacapava do sul", "lat": -30.51, "lon": -53.48 },
  { "name": "Cacequi", "normalizedName": "cacequi", "lat": -29.88, "lon": -54.82 },
  { "name": "Cachoeira do Sul", "normalizedName": "cachoeira do sul", "lat": -30.03, "lon": -52.89 },
  { "name": "Cachoeirinha", "normalizedName": "cachoeirinha", "lat": -29.95, "lon": -51.09 },
  { "name": "Cacique Doble", "normalizedName": "cacique doble", "lat": -27.76, "lon": -51.67 },
  { "name": "Caibaté", "normalizedName": "caibate", "lat": -28.28, "lon": -54.64 },
  { "name": "Caiçara", "normalizedName": "caicara", "lat": -27.27, "lon": -53.4 },
  { "name": "Camaquã", "normalizedName": "camaqua", "lat": -30.85, "lon": -51.81 },
  { "name": "Camargo", "normalizedName": "camargo", "lat": -28.58, "lon": -52.19 },
  { "name": "Cambará do Sul", "normalizedName": "cambara do sul", "lat": -29.04, "lon": -50.14 },
  { "name": "Campestre da Serra", "normalizedName": "campestre da serra", "lat": -28.79, "lon": -51.09 },
  { "name": "Campina das Missões", "normalizedName": "campina das missoes", "lat": -27.98, "lon": -54.84 },
  { "name": "Campinas do Sul", "normalizedName": "campinas do sul", "lat": -27.7, "lon": -52.62 },
  { "name": "Campo Bom", "normalizedName": "campo bom", "lat": -29.67, "lon": -51.05 },
  { "name": "Campo Novo", "normalizedName": "campo novo", "lat": -27.7, "lon": -53.8 },
  { "name": "Campos Borges", "normalizedName": "campos borges", "lat": -28.89, "lon": -52.99 },
  { "name": "Candelária", "normalizedName": "candelaria", "lat": -29.66, "lon": -52.79 },
  { "name": "Cândido Godói", "normalizedName": "candido godoi", "lat": -27.95, "lon": -54.75 },
  { "name": "Candiota", "normalizedName": "candiota", "lat": -31.55, "lon": -53.67 },
  { "name": "Canela", "normalizedName": "canela", "lat": -29.36, "lon": -50.81 },
  { "name": "Canguçu", "normalizedName": "cangucu", "lat": -31.39, "lon": -52.67 },
  { "name": "Canoas", "normalizedName": "canoas", "lat": -29.91, "lon": -51.18 },
  { "name": "Canudos do Vale", "normalizedName": "canudos do vale", "lat": -29.28, "lon": -52.33 },
  { "name": "Capão Bonito do Sul", "normalizedName": "capao bonito do sul", "lat": -28.14, "lon": -51.35 },
  { "name": "Capão da Canoa", "normalizedName": "capao da canoa", "lat": -29.76, "lon": -50.03 },
  { "name": "Capão do Cipó", "normalizedName": "capao do cipo", "lat": -28.94, "lon": -54.59 },
  { "name": "Capão do Leão", "normalizedName": "capao do leao", "lat": -31.76, "lon": -52.49 },
  { "name": "Capela de Santana", "normalizedName": "capela de santana", "lat": -29.7, "lon": -51.32 },
  { "name": "Capitão", "normalizedName": "capitao", "lat": -29.13, "lon": -51.99 },
  { "name": "Capivari do Sul", "normalizedName": "capivari do sul", "lat": -30.13, "lon": -50.51 },
  { "name": "Caraá", "normalizedName": "caraa", "lat": -29.78, "lon": -50.43 },
  { "name": "Carazinho", "normalizedName": "carazinho", "lat": -28.28, "lon": -52.78 },
  { "name": "Carlos Barbosa", "normalizedName": "carlos barbosa", "lat": -29.29, "lon": -51.5 },
  { "name": "Carlos Gomes", "normalizedName": "carlos gomes", "lat": -27.71, "lon": -52.12 },
  { "name": "Casca", "normalizedName": "casca", "lat": -28.56, "lon": -51.98 },
  { "name": "Caseiros", "normalizedName": "caseiros", "lat": -28.35, "lon": -51.9 },
  { "name": "Catuípe", "normalizedName": "catuipe", "lat": -28.25, "lon": -54.08 },
  { "name": "Caxias do Sul", "normalizedName": "caxias do sul", "lat": -29.16, "lon": -51.17 },
  { "name": "Centenário", "normalizedName": "centenario", "lat": -27.76, "lon": -52.26 },
  { "name": "Cerrito", "normalizedName": "cerrito", "lat": -31.85, "lon": -52.81 },
  { "name": "Cerro Branco", "normalizedName": "cerro branco", "lat": -29.56, "lon": -52.93 },
  { "name": "Cerro Grande", "normalizedName": "cerro grande", "lat": -27.6, "lon": -53.18 },
  { "name": "Cerro Grande do Sul", "normalizedName": "cerro grande do sul", "lat": -30.61, "lon": -51.8 },
  { "name": "Cerro Largo", "normalizedName": "cerro largo", "lat": -28.14, "lon": -54.73 },
  { "name": "Chapada", "normalizedName": "chapada", "lat": -28.05, "lon": -53.07 },
  { "name": "Charqueadas", "normalizedName": "charqueadas", "lat": -29.95, "lon": -51.62 },
  { "name": "Charrua", "normalizedName": "charrua", "lat": -27.97, "lon": -52.02 },
  { "name": "Chiapetta", "normalizedName": "chiapetta", "lat": -27.92, "lon": -53.94 },
  { "name": "Chuí", "normalizedName": "chui", "lat": -33.68, "lon": -53.45 },
  { "name": "Chuvisca", "normalizedName": "chuvisca", "lat": -30.75, "lon": -52.13 },
  { "name": "Cidreira", "normalizedName": "cidreira", "lat": -30.18, "lon": -50.2 },
  { "name": "Ciríaco", "normalizedName": "ciriaco", "lat": -28.34, "lon": -51.88 },
  { "name": "Colinas", "normalizedName": "colinas", "lat": -29.53, "lon": -51.86 },
  { "name": "Colorado", "normalizedName": "colorado", "lat": -28.52, "lon": -53.01 },
  { "name": "Condor", "normalizedName": "condor", "lat": -28.2, "lon": -53.48 },
  { "name": "Constantina", "normalizedName": "constantina", "lat": -27.73, "lon": -52.99 },
  { "name": "Coqueiro Baixo", "normalizedName": "coqueiro baixo", "lat": -29.08, "lon": -52.12 },
  { "name": "Coqueiros do Sul", "normalizedName": "coqueiros do sul", "lat": -28.13, "lon": -52.83 },
  { "name": "Coronel Barros", "normalizedName": "coronel barros", "lat": -28.39, "lon": -54.05 },
  { "name": "Coronel Bicaco", "normalizedName": "coronel bicaco", "lat": -27.71, "lon": -53.7 },
  { "name": "Coronel Pilar", "normalizedName": "coronel pilar", "lat": -29.25, "lon": -51.7 },
  { "name": "Cotiporã", "normalizedName": "cotipora", "lat": -28.99, "lon": -51.69 },
  { "name": "Coxilha", "normalizedName": "coxilha", "lat": -28.13, "lon": -52.3 },
  { "name": "Crissiumal", "normalizedName": "crissiumal", "lat": -27.5, "lon": -54.11 },
  { "name": "Cristal", "normalizedName": "cristal", "lat": -30.95, "lon": -52.04 },
  { "name": "Cristal do Sul", "normalizedName": "cristal do sul", "lat": -27.42, "lon": -53.18 },
  { "name": "Cruz Alta", "normalizedName": "cruz alta", "lat": -28.63, "lon": -53.6 },
  { "name": "Cruzaltense", "normalizedName": "cruzaltense", "lat": -27.65, "lon": -52.69 },
  { "name": "Cruzeiro do Sul", "normalizedName": "cruzeiro do sul", "lat": -29.51, "lon": -51.98 },
  { "name": "David Canabarro", "normalizedName": "david canabarro", "lat": -28.38, "lon": -52.18 },
  { "name": "Derrubadas", "normalizedName": "derrubadas", "lat": -27.26, "lon": -53.86 },
  { "name": "Dezesseis de Novembro", "normalizedName": "dezesseis de novembro", "lat": -28.21, "lon": -55.05 },
  { "name": "Dilermando de Aguiar", "normalizedName": "dilermando de aguiar", "lat": -29.69, "lon": -54.19 },
  { "name": "Dois Irmãos", "normalizedName": "dois irmaos", "lat": -29.58, "lon": -51.08 },
  { "name": "Dois Irmãos das Missões", "normalizedName": "dois irmaos das missoes", "lat": -27.65, "lon": -53.53 },
  { "name": "Dois Lajeados", "normalizedName": "dois lajeados", "lat": -28.98, "lon": -51.85 },
  { "name": "Dom Feliciano", "normalizedName": "dom feliciano", "lat": -30.7, "lon": -52.1 },
  { "name": "Dom Pedro de Alcântara", "normalizedName": "dom pedro de alcantara", "lat": -29.36, "lon": -49.84 },
  { "name": "Dom Pedrito", "normalizedName": "dom pedrito", "lat": -30.98, "lon": -54.67 },
  { "name": "Dona Francisca", "normalizedName": "dona francisca", "lat": -29.62, "lon": -53.36 },
  { "name": "Doutor Maurício Cardoso", "normalizedName": "doutor mauricio cardoso", "lat": -27.43, "lon": -54.38 },
  { "name": "Doutor Ricardo", "normalizedName": "doutor ricardo", "lat": -29.08, "lon": -52.19 },
  { "name": "Eldorado do Sul", "normalizedName": "eldorado do sul", "lat": -30.08, "lon": -51.61 },
  { "name": "Encantado", "normalizedName": "encantado", "lat": -29.23, "lon": -51.87 },
  { "name": "Encruzilhada do Sul", "normalizedName": "encruzilhada do sul", "lat": -30.54, "lon": -52.52 },
  { "name": "Engenho Velho", "normalizedName": "engenho velho", "lat": -27.7, "lon": -52.88 },
  { "name": "Entre-Ijuís", "normalizedName": "entre-ijuis", "lat": -28.43, "lon": -54.27 },
  { "name": "Entre Rios do Sul", "normalizedName": "entre rios do sul", "lat": -27.5, "lon": -52.7 },
  { "name": "Erebango", "normalizedName": "erebango", "lat": -27.91, "lon": -52.34 },
  { "name": "Erechim", "normalizedName": "erechim", "lat": -27.63, "lon": -52.27 },
  { "name": "Ernestina", "normalizedName": "ernestina", "lat": -28.53, "lon": -52.56 },
  { "name": "Erval Grande", "normalizedName": "erval grande", "lat": -27.37, "lon": -52.57 },
  { "name": "Erval Seco", "normalizedName": "erval seco", "lat": -27.56, "lon": -53.49 },
  { "name": "Esmeralda", "normalizedName": "esmeralda", "lat": -28.04, "lon": -51.18 },
  { "name": "Esperança do Sul", "normalizedName": "esperanca do sul", "lat": -27.4, "lon": -53.94 },
  { "name": "Espumoso", "normalizedName": "espumoso", "lat": -28.72, "lon": -52.84 },
  { "name": "Estação", "normalizedName": "estacao", "lat": -27.91, "lon": -52.23 },
  { "name": "Estância Velha", "normalizedName": "estancia velha", "lat": -29.65, "lon": -51.17 },
  { "name": "Esteio", "normalizedName": "esteio", "lat": -29.86, "lon": -51.17 },
  { "name": "Estrela", "normalizedName": "estrela", "lat": -29.5, "lon": -51.96 },
  { "name": "Estrela Velha", "normalizedName": "estrela velha", "lat": -29.16, "lon": -53.16 },
  { "name": "Eugênio de Castro", "normalizedName": "eugenio de castro", "lat": -28.52, "lon": -54.1 },
  { "name": "Fagundes Varela", "normalizedName": "fagundes varela", "lat": -28.88, "lon": -51.68 },
  { "name": "Farroupilha", "normalizedName": "farroupilha", "lat": -29.22, "lon": -51.34 },
  { "name": "Faxinal do Soturno", "normalizedName": "faxinal do soturno", "lat": -29.58, "lon": -53.45 },
  { "name": "Faxinalzinho", "normalizedName": "faxinalzinho", "lat": -27.43, "lon": -52.69 },
  { "name": "Fazenda Vilanova", "normalizedName": "fazenda vilanova", "lat": -29.56, "lon": -51.81 },
  { "name": "Feliz", "normalizedName": "feliz", "lat": -29.45, "lon": -51.3 },
  { "name": "Flores da Cunha", "normalizedName": "flores da cunha", "lat": -29.02, "lon": -51.18 },
  { "name": "Floriano Peixoto", "normalizedName": "floriano peixoto", "lat": -27.85, "lon": -52.09 },
  { "name": "Fontoura Xavier", "normalizedName": "fontoura xavier", "lat": -28.98, "lon": -52.35 },
  { "name": "Formigueiro", "normalizedName": "formigueiro", "lat": -30.01, "lon": -53.46 },
  { "name": "Forquetinha", "normalizedName": "forquetinha", "lat": -29.41, "lon": -52.07 },
  { "name": "Fortaleza dos Valos", "normalizedName": "fortaleza dos valos", "lat": -28.79, "lon": -53.17 },
  { "name": "Frederico Westphalen", "normalizedName": "frederico westphalen", "lat": -27.35, "lon": -53.39 },
  { "name": "Garibaldi", "normalizedName": "garibaldi", "lat": -29.25, "lon": -51.53 },
  { "name": "Garruchos", "normalizedName": "garruchos", "lat": -28.18, "lon": -55.63 },
  { "name": "Gaurama", "normalizedName": "gaurama", "lat": -27.57, "lon": -52.07 },
  { "name": "General Câmara", "normalizedName": "general camara", "lat": -29.9, "lon": -51.76 },
  { "name": "Gentil", "normalizedName": "gentil", "lat": -28.45, "lon": -52.05 },
  { "name": "Getúlio Vargas", "normalizedName": "getulio vargas", "lat": -27.93, "lon": -52.22 },
  { "name": "Giruá", "normalizedName": "girua", "lat": -28.02, "lon": -54.35 },
  { "name": "Glorinha", "normalizedName": "glorinha", "lat": -29.88, "lon": -50.76 },
  { "name": "Gramado", "normalizedName": "gramado", "lat": -29.37, "lon": -50.87 },
  { "name": "Gramado dos Loureiros", "normalizedName": "gramado dos loureiros", "lat": -27.42, "lon": -52.91 },
  { "name": "Gramado Xavier", "normalizedName": "gramado xavier", "lat": -29.25, "lon": -52.5 },
  { "name": "Gravataí", "normalizedName": "gravatai", "lat": -29.94, "lon": -50.99 },
  { "name": "Guabiju", "normalizedName": "guabiju", "lat": -28.53, "lon": -51.68 },
  { "name": "Guaíba", "normalizedName": "guaiba", "lat": -30.11, "lon": -51.32 },
  { "name": "Guaporé", "normalizedName": "guapore", "lat": -28.84, "lon": -51.89 },
  { "name": "Guarani das Missões", "normalizedName": "guarani das missoes", "lat": -28.14, "lon": -54.56 },
  { "name": "Harmonia", "normalizedName": "harmonia", "lat": -29.54, "lon": -51.42 },
  { "name": "Herval", "normalizedName": "herval", "lat": -32.02, "lon": -53.39 },
  { "name": "Herveiras", "normalizedName": "herveiras", "lat": -29.43, "lon": -52.55 },
  { "name": "Horizontina", "normalizedName": "horizontina", "lat": -27.62, "lon": -54.3 },
  { "name": "Hulha Negra", "normalizedName": "hulha negra", "lat": -31.4, "lon": -53.86 },
  { "name": "Humaitá", "normalizedName": "humaita", "lat": -27.56, "lon": -53.96 },
  { "name": "Ibarama", "normalizedName": "ibarama", "lat": -29.4, "lon": -53.13 },
  { "name": "Ibiaçá", "normalizedName": "ibiaca", "lat": -28.07, "lon": -51.86 },
  { "name": "Ibiraiaras", "normalizedName": "ibiraiaras", "lat": -28.32, "lon": -51.65 },
  { "name": "Ibirapuitã", "normalizedName": "ibirapuita", "lat": -28.61, "lon": -52.48 },
  { "name": "Ibirubá", "normalizedName": "ibiruba", "lat": -28.62, "lon": -53.08 },
  { "name": "Igrejinha", "normalizedName": "igrejinha", "lat": -29.57, "lon": -50.78 },
  { "name": "Ijuí", "normalizedName": "ijui", "lat": -28.38, "lon": -53.91 },
  { "name": "Ilópolis", "normalizedName": "ilopolis", "lat": -28.92, "lon": -52.12 },
  { "name": "Imbé", "normalizedName": "imbe", "lat": -29.97, "lon": -50.12 },
  { "name": "Imigrante", "normalizedName": "imigrante", "lat": -29.35, "lon": -51.77 },
  { "name": "Independência", "normalizedName": "independencia", "lat": -27.85, "lon": -54.19 },
  { "name": "Inhacorá", "normalizedName": "inhacora", "lat": -27.89, "lon": -54.08 },
  { "name": "Ipê", "normalizedName": "ipe", "lat": -28.82, "lon": -51.27 },
  { "name": "Ipiranga do Sul", "normalizedName": "ipiranga do sul", "lat": -27.91, "lon": -52.41 },
  { "name": "Iraí", "normalizedName": "irai", "lat": -27.19, "lon": -53.25 },
  { "name": "Itaara", "normalizedName": "itaara", "lat": -29.6, "lon": -53.77 },
  { "name": "Itacurubi", "normalizedName": "itacurubi", "lat": -29.07, "lon": -55.23 },
  { "name": "Itapuca", "normalizedName": "itapuca", "lat": -28.82, "lon": -52.1 },
  { "name": "Itaqui", "normalizedName": "itaqui", "lat": -29.12, "lon": -56.55 },
  { "name": "Itati", "normalizedName": "itati", "lat": -29.49, "lon": -50.22 },
  { "name": "Itatiba do Sul", "normalizedName": "itatiba do sul", "lat": -27.38, "lon": -52.47 },
  { "name": "Ivorá", "normalizedName": "ivora", "lat": -29.52, "lon": -53.58 },
  { "name": "Ivoti", "normalizedName": "ivoti", "lat": -29.59, "lon": -51.15 },
  { "name": "Jaboticaba", "normalizedName": "jaboticaba", "lat": -27.63, "lon": -53.29 },
  { "name": "Jacuizinho", "normalizedName": "jacuizinho", "lat": -28.95, "lon": -52.97 },
  { "name": "Jacutinga", "normalizedName": "jacutinga", "lat": -27.75, "lon": -52.47 },
  { "name": "Jaguarão", "normalizedName": "jaguarao", "lat": -32.56, "lon": -53.37 },
  { "name": "Jaguari", "normalizedName": "jaguari", "lat": -29.49, "lon": -54.69 },
  { "name": "Jaquirana", "normalizedName": "jaquirana", "lat": -28.85, "lon": -50.36 },
  { "name": "Jari", "normalizedName": "jari", "lat": -29.29, "lon": -54.21 },
  { "name": "Jóia", "normalizedName": "joia", "lat": -28.64, "lon": -54.12 },
  { "name": "Júlio de Castilhos", "normalizedName": "julio de castilhos", "lat": -29.22, "lon": -53.68 },
  { "name": "Lagoa Bonita do Sul", "normalizedName": "lagoa bonita do sul", "lat": -29.26, "lon": -53 },
  { "name": "Lagoa dos Três Cantos", "normalizedName": "lagoa dos tres cantos", "lat": -28.56, "lon": -52.88 },
  { "name": "Lagoa Vermelha", "normalizedName": "lagoa vermelha", "lat": -28.2, "lon": -51.52 },
  { "name": "Lagoão", "normalizedName": "lagoao", "lat": -29.1, "lon": -52.84 },
  { "name": "Lajeado", "normalizedName": "lajeado", "lat": -29.46, "lon": -51.96 },
  { "name": "Lajeado do Bugre", "normalizedName": "lajeado do bugre", "lat": -27.7, "lon": -53.19 },
  { "name": "Lavras do Sul", "normalizedName": "lavras do sul", "lat": -30.8, "lon": -53.89 },
  { "name": "Liberato Salzano", "normalizedName": "liberato salzano", "lat": -27.59, "lon": -53.1 },
  { "name": "Lindolfo Collor", "normalizedName": "lindolfo collor", "lat": -29.59, "lon": -51.2 },
  { "name": "Linha Nova", "normalizedName": "linha nova", "lat": -29.46, "lon": -51.19 },
  { "name": "Maçambará", "normalizedName": "macambara", "lat": -29.1, "lon": -55.77 },
  { "name": "Machadinho", "normalizedName": "machadinho", "lat": -27.56, "lon": -51.67 },
  { "name": "Mampituba", "normalizedName": "mampituba", "lat": -29.21, "lon": -49.93 },
  { "name": "Manoel Viana", "normalizedName": "manoel viana", "lat": -29.58, "lon": -55.48 },
  { "name": "Maquiné", "normalizedName": "maquine", "lat": -29.67, "lon": -50.2 },
  { "name": "Maratá", "normalizedName": "marata", "lat": -29.54, "lon": -51.55 },
  { "name": "Marau", "normalizedName": "marau", "lat": -28.45, "lon": -52.19 },
  { "name": "Marcelino Ramos", "normalizedName": "marcelino ramos", "lat": -27.46, "lon": -51.9 },
  { "name": "Mariana Pimentel", "normalizedName": "mariana pimentel", "lat": -30.35, "lon": -51.58 },
  { "name": "Mariano Moro", "normalizedName": "mariano moro", "lat": -27.34, "lon": -52.16 },
  { "name": "Marques de Souza", "normalizedName": "marques de souza", "lat": -29.32, "lon": -52.09 },
  { "name": "Mata", "normalizedName": "mata", "lat": -29.56, "lon": -54.45 },
  { "name": "Mato Castelhano", "normalizedName": "mato castelhano", "lat": -28.37, "lon": -52.16 },
  { "name": "Mato Leitão", "normalizedName": "mato leitao", "lat": -29.53, "lon": -52.13 },
  { "name": "Mato Queimado", "normalizedName": "mato queimado", "lat": -28.3, "lon": -54.6 },
  { "name": "Maximiliano de Almeida", "normalizedName": "maximiliano de almeida", "lat": -27.62, "lon": -51.79 },
  { "name": "Minas do Leão", "normalizedName": "minas do leao", "lat": -30.13, "lon": -52.03 },
  { "name": "Miraguaí", "normalizedName": "miraguai", "lat": -27.52, "lon": -53.68 },
  { "name": "Montauri", "normalizedName": "montauri", "lat": -28.64, "lon": -51.98 },
  { "name": "Monte Alegre dos Campos", "normalizedName": "monte alegre dos campos", "lat": -28.76, "lon": -50.77 },
  { "name": "Monte Belo do Sul", "normalizedName": "monte belo do sul", "lat": -29.16, "lon": -51.62 },
  { "name": "Montenegro", "normalizedName": "montenegro", "lat": -29.68, "lon": -51.46 },
  { "name": "Mormaço", "normalizedName": "mormaco", "lat": -28.71, "lon": -52.79 },
  { "name": "Morrinhos do Sul", "normalizedName": "morrinhos do sul", "lat": -29.28, "lon": -49.93 },
  { "name": "Morro Redondo", "normalizedName": "morro redondo", "lat": -31.6, "lon": -52.58 },
  { "name": "Morro Reuter", "normalizedName": "morro reuter", "lat": -29.53, "lon": -51.08 },
  { "name": "Mostardas", "normalizedName": "mostardas", "lat": -31.1, "lon": -50.92 },
  { "name": "Muçum", "normalizedName": "mucum", "lat": -29.16, "lon": -51.87 },
  { "name": "Muitos Capões", "normalizedName": "muitos capoes", "lat": -28.31, "lon": -51.18 },
  { "name": "Muliterno", "normalizedName": "muliterno", "lat": -28.17, "lon": -51.92 },
  { "name": "Não-Me-Toque", "normalizedName": "nao-me-toque", "lat": -28.45, "lon": -52.82 },
  { "name": "Nicolau Vergueiro", "normalizedName": "nicolau vergueiro", "lat": -28.51, "lon": -52.45 },
  { "name": "Nonoai", "normalizedName": "nonoai", "lat": -27.36, "lon": -52.77 },
  { "name": "Nova Alvorada", "normalizedName": "nova alvorada", "lat": -28.67, "lon": -52.15 },
  { "name": "Nova Araçá", "normalizedName": "nova araca", "lat": -28.66, "lon": -51.95 },
  { "name": "Nova Bassano", "normalizedName": "nova bassano", "lat": -28.73, "lon": -51.85 },
  { "name": "Nova Boa Vista", "normalizedName": "nova boa vista", "lat": -27.99, "lon": -53.0 },
  { "name": "Nova Bréscia", "normalizedName": "nova brescia", "lat": -29.21, "lon": -52.02 },
  { "name": "Nova Candelária", "normalizedName": "nova candelaria", "lat": -27.56, "lon": -54.1 },
  { "name": "Nova Esperança do Sul", "normalizedName": "nova esperanca do sul", "lat": -29.36, "lon": -54.82 },
  { "name": "Nova Hartz", "normalizedName": "nova hartz", "lat": -29.58, "lon": -50.9 },
  { "name": "Nova Pádua", "normalizedName": "nova padua", "lat": -29.02, "lon": -51.3 },
  { "name": "Nova Palma", "normalizedName": "nova palma", "lat": -29.45, "lon": -53.48 },
  { "name": "Nova Petrópolis", "normalizedName": "nova petropolis", "lat": -29.37, "lon": -51.11 },
  { "name": "Nova Prata", "normalizedName": "nova prata", "lat": -28.78, "lon": -51.61 },
  { "name": "Nova Ramada", "normalizedName": "nova ramada", "lat": -28.1, "lon": -53.86 },
  { "name": "Nova Roma do Sul", "normalizedName": "nova roma do sul", "lat": -28.98, "lon": -51.4 },
  { "name": "Nova Santa Rita", "normalizedName": "nova santa rita", "lat": -29.85, "lon": -51.27 },
  { "name": "Novo Barreiro", "normalizedName": "novo barreiro", "lat": -27.91, "lon": -53.11 },
  { "name": "Novo Cabrais", "normalizedName": "novo cabrais", "lat": -29.7, "lon": -52.96 },
  { "name": "Novo Hamburgo", "normalizedName": "novo hamburgo", "lat": -29.68, "lon": -51.13 },
  { "name": "Novo Machado", "normalizedName": "novo machado", "lat": -27.56, "lon": -54.49 },
  { "name": "Novo Tiradentes", "normalizedName": "novo tiradentes", "lat": -27.46, "lon": -53.1 },
  { "name": "Novo Xingu", "normalizedName": "novo xingu", "lat": -27.75, "lon": -52.95 },
  { "name": "Osório", "normalizedName": "osorio", "lat": -29.88, "lon": -50.27 },
  { "name": "Paim Filho", "normalizedName": "paim filho", "lat": -27.71, "lon": -51.76 },
  { "name": "Palmares do Sul", "normalizedName": "palmares do sul", "lat": -30.25, "lon": -50.5 },
  { "name": "Palmeira das Missões", "normalizedName": "palmeira das missoes", "lat": -27.9, "lon": -53.31 },
  { "name": "Palmitinho", "normalizedName": "palmitinho", "lat": -27.35, "lon": -53.56 },
  { "name": "Panambi", "normalizedName": "panambi", "lat": -28.29, "lon": -53.5 },
  { "name": "Pantano Grande", "normalizedName": "pantano grande", "lat": -30.18, "lon": -52.36 },
  { "name": "Paraí", "normalizedName": "parai", "lat": -28.59, "lon": -51.78 },
  { "name": "Paraíso do Sul", "normalizedName": "paraiso do sul", "lat": -29.69, "lon": -53.19 },
  { "name": "Pareci Novo", "normalizedName": "pareci novo", "lat": -29.63, "lon": -51.39 },
  { "name": "Parobé", "normalizedName": "parobe", "lat": -29.62, "lon": -50.83 },
  { "name": "Passa Sete", "normalizedName": "passa sete", "lat": -29.35, "lon": -52.92 },
  { "name": "Passo do Sobrado", "normalizedName": "passo do sobrado", "lat": -29.75, "lon": -52.28 },
  { "name": "Passo Fundo", "normalizedName": "passo fundo", "lat": -28.26, "lon": -52.4 },
  { "name": "Paulo Bento", "normalizedName": "paulo bento", "lat": -27.7, "lon": -52.42 },
  { "name": "Paverama", "normalizedName": "paverama", "lat": -29.58, "lon": -51.68 },
  { "name": "Pedras Altas", "normalizedName": "pedras altas", "lat": -31.72, "lon": -53.58 },
  { "name": "Pedro Osório", "normalizedName": "pedro osorio", "lat": -31.85, "lon": -52.88 },
  { "name": "Pejuçara", "normalizedName": "pejucara", "lat": -28.43, "lon": -53.66 },
  { "name": "Pelotas", "normalizedName": "pelotas", "lat": -31.77, "lon": -52.34 },
  { "name": "Picada Café", "normalizedName": "picada cafe", "lat": -29.44, "lon": -51.13 },
  { "name": "Pinhal", "normalizedName": "pinhal", "lat": -27.5, "lon": -53.25 },
  { "name": "Pinhal da Serra", "normalizedName": "pinhal da serra", "lat": -27.86, "lon": -51.17 },
  { "name": "Pinhal Grande", "normalizedName": "pinhal grande", "lat": -29.35, "lon": -53.3 },
  { "name": "Pinheirinho do Vale", "normalizedName": "pinheirinho do vale", "lat": -27.21, "lon": -53.61 },
  { "name": "Pinheiro Machado", "normalizedName": "pinheiro machado", "lat": -31.57, "lon": -53.37 },
  { "name": "Pinto Bandeira", "normalizedName": "pinto bandeira", "lat": -29.09, "lon": -51.44 },
  { "name": "Pirapó", "normalizedName": "pirapo", "lat": -28.03, "lon": -55.12 },
  { "name": "Piratini", "normalizedName": "piratini", "lat": -31.44, "lon": -53.1 },
  { "name": "Planalto", "normalizedName": "planalto", "lat": -27.33, "lon": -53.06 },
  { "name": "Poço das Antas", "normalizedName": "poco das antas", "lat": -29.43, "lon": -51.65 },
  { "name": "Pontão", "normalizedName": "pontao", "lat": -28.05, "lon": -52.68 },
  { "name": "Ponte Preta", "normalizedName": "ponte preta", "lat": -27.69, "lon": -52.5 },
  { "name": "Portão", "normalizedName": "portao", "lat": -29.7, "lon": -51.24 },
  { "name": "Porto Alegre", "normalizedName": "porto alegre", "lat": -30.03, "lon": -51.2 },
  { "name": "Porto Lucena", "normalizedName": "porto lucena", "lat": -27.85, "lon": -55.01 },
  { "name": "Porto Mauá", "normalizedName": "porto maua", "lat": -27.57, "lon": -54.67 },
  { "name": "Porto Vera Cruz", "normalizedName": "porto vera cruz", "lat": -27.73, "lon": -54.89 },
  { "name": "Porto Xavier", "normalizedName": "porto xavier", "lat": -27.9, "lon": -55.13 },
  { "name": "Pouso Novo", "normalizedName": "pouso novo", "lat": -29.16, "lon": -52.18 },
  { "name": "Presidente Lucena", "normalizedName": "presidente lucena", "lat": -29.51, "lon": -51.17 },
  { "name": "Progresso", "normalizedName": "progresso", "lat": -29.24, "lon": -52.32 },
  { "name": "Protásio Alves", "normalizedName": "protasio alves", "lat": -28.84, "lon": -51.78 },
  { "name": "Putinga", "normalizedName": "putinga", "lat": -29, "lon": -52.15 },
  { "name": "Quaraí", "normalizedName": "quarai", "lat": -30.38, "lon": -56.45 },
  { "name": "Quatro Irmãos", "normalizedName": "quatro irmaos", "lat": -27.83, "lon": -52.41 },
  { "name": "Quevedos", "normalizedName": "quevedos", "lat": -29.35, "lon": -54.08 },
  { "name": "Quinze de Novembro", "normalizedName": "quinze de novembro", "lat": -28.74, "lon": -53.09 },
  { "name": "Redentora", "normalizedName": "redentora", "lat": -27.67, "lon": -53.64 },
  { "name": "Relvado", "normalizedName": "relvado", "lat": -29.13, "lon": -52.07 },
  { "name": "Restinga Seca", "normalizedName": "restinga seca", "lat": -29.81, "lon": -53.37 },
  { "name": "Rio dos Índios", "normalizedName": "rio dos indios", "lat": -27.35, "lon": -52.82 },
  { "name": "Rio Grande", "normalizedName": "rio grande", "lat": -32.03, "lon": -52.09 },
  { "name": "Rio Pardo", "normalizedName": "rio pardo", "lat": -29.98, "lon": -52.37 },
  { "name": "Riozinho", "normalizedName": "riozinho", "lat": -29.63, "lon": -50.47 },
  { "name": "Roca Sales", "normalizedName": "roca sales", "lat": -29.28, "lon": -51.87 },
  { "name": "Rodeio Bonito", "normalizedName": "rodeio bonito", "lat": -27.46, "lon": -53.18 },
  { "name": "Rolador", "normalizedName": "rolador", "lat": -28.27, "lon": -54.89 },
  { "name": "Rolante", "normalizedName": "rolante", "lat": -29.65, "lon": -50.57 },
  { "name": "Ronda Alta", "normalizedName": "ronda alta", "lat": -27.78, "lon": -52.8 },
  { "name": "Rondinha", "normalizedName": "rondinha", "lat": -27.81, "lon": -52.9 },
  { "name": "Roque Gonzales", "normalizedName": "roque gonzales", "lat": -28.13, "lon": -55.02 },
  { "name": "Rosário do Sul", "normalizedName": "rosario do sul", "lat": -30.25, "lon": -54.91 },
  { "name": "Sagrada Família", "normalizedName": "sagrada familia", "lat": -27.75, "lon": -53.11 },
  { "name": "Saldanha Marinho", "normalizedName": "saldanha marinho", "lat": -28.38, "lon": -53.07 },
  { "name": "Salto do Jacuí", "normalizedName": "salto do jacui", "lat": -29.08, "lon": -53.21 },
  { "name": "Salvador das Missões", "normalizedName": "salvador das missoes", "lat": -28.11, "lon": -54.84 },
  { "name": "Salvador do Sul", "normalizedName": "salvador do sul", "lat": -29.43, "lon": -51.5 },
  { "name": "Sananduva", "normalizedName": "sananduva", "lat": -27.94, "lon": -51.8 },
  { "name": "Santa Bárbara do Sul", "normalizedName": "santa barbara do sul", "lat": -28.38, "lon": -53.25 },
  { "name": "Santa Cecília do Sul", "normalizedName": "santa cecilia do sul", "lat": -28.05, "lon": -52.33 },
  { "name": "Santa Clara do Sul", "normalizedName": "santa clara do sul", "lat": -29.46, "lon": -52.08 },
  { "name": "Santa Cruz do Sul", "normalizedName": "santa cruz do sul", "lat": -29.71, "lon": -52.42 },
  { "name": "Santa Margarida do Sul", "normalizedName": "santa margarida do sul", "lat": -29.4, "lon": -54.06 },
  { "name": "Santa Maria", "normalizedName": "santa maria", "lat": -29.68, "lon": -53.8 },
  { "name": "Santa Maria do Herval", "normalizedName": "santa maria do herval", "lat": -29.5, "lon": -50.99 },
  { "name": "Santana da Boa Vista", "normalizedName": "santana da boa vista", "lat": -30.87, "lon": -52.93 },
  { "name": "Sant'Ana do Livramento", "normalizedName": "sant'ana do livramento", "lat": -30.89, "lon": -55.53 },
  { "name": "Santa Rosa", "normalizedName": "santa rosa", "lat": -27.87, "lon": -54.48 },
  { "name": "Santa Tereza", "normalizedName": "santa tereza", "lat": -29.16, "lon": -51.72 },
  { "name": "Santa Vitória do Palmar", "normalizedName": "santa vitoria do palmar", "lat": -33.51, "lon": -53.36 },
  { "name": "Santiago", "normalizedName": "santiago", "lat": -29.19, "lon": -54.86 },
  { "name": "Santo Ângelo", "normalizedName": "santo angelo", "lat": -28.29, "lon": -54.26 },
  { "name": "Santo Antônio da Patrulha", "normalizedName": "santo antonio da patrulha", "lat": -29.84, "lon": -50.51 },
  { "name": "Santo Antônio das Missões", "normalizedName": "santo antonio das missoes", "lat": -28.5, "lon": -55.22 },
  { "name": "Santo Antônio do Palma", "normalizedName": "santo antonio do palma", "lat": -28.49, "lon": -52.03 },
  { "name": "Santo Antônio do Planalto", "normalizedName": "santo antonio do planalto", "lat": -28.38, "lon": -52.68 },
  { "name": "Santo Augusto", "normalizedName": "santo augusto", "lat": -27.85, "lon": -53.77 },
  { "name": "Santo Cristo", "normalizedName": "santo cristo", "lat": -27.82, "lon": -54.66 },
  { "name": "Santo Expedito do Sul", "normalizedName": "santo expedito do sul", "lat": -27.86, "lon": -51.64 },
  { "name": "São Borja", "normalizedName": "sao borja", "lat": -28.66, "lon": -56 },
  { "name": "São Domingos do Sul", "normalizedName": "sao domingos do sul", "lat": -28.52, "lon": -52.02 },
  { "name": "São Francisco de Assis", "normalizedName": "sao francisco de assis", "lat": -29.55, "lon": -55.13 },
  { "name": "São Francisco de Paula", "normalizedName": "sao francisco de paula", "lat": -29.44, "lon": -50.58 },
  { "name": "São Gabriel", "normalizedName": "sao gabriel", "lat": -30.34, "lon": -54.32 },
  { "name": "São Jerônimo", "normalizedName": "sao jeronimo", "lat": -29.96, "lon": -51.72 },
  { "name": "São João da Urtiga", "normalizedName": "sao joao da urtiga", "lat": -27.8, "lon": -51.8 },
  { "name": "São João do Polêsine", "normalizedName": "sao joao do polesine", "lat": -29.62, "lon": -53.47 },
  { "name": "São Jorge", "normalizedName": "sao jorge", "lat": -28.5, "lon": -51.7 },
  { "name": "São José das Missões", "normalizedName": "sao jose das missoes", "lat": -27.76, "lon": -53.25 },
  { "name": "São José do Herval", "normalizedName": "sao jose do herval", "lat": -29.05, "lon": -52.28 },
  { "name": "São José do Inhacorá", "normalizedName": "sao jose do inhacora", "lat": -27.71, "lon": -54.12 },
  { "name": "São José do Norte", "normalizedName": "sao jose do norte", "lat": -32.01, "lon": -52.03 },
  { "name": "São José do Ouro", "normalizedName": "sao jose do ouro", "lat": -27.73, "lon": -51.6 },
  { "name": "São José do Sul", "normalizedName": "sao jose do sul", "lat": -29.57, "lon": -51.48 },
  { "name": "São José dos Ausentes", "normalizedName": "sao jose dos ausentes", "lat": -28.74, "lon": -50.06 },
  { "name": "São Leopoldo", "normalizedName": "sao leopoldo", "lat": -29.76, "lon": -51.14 },
  { "name": "São Lourenço do Sul", "normalizedName": "sao lourenco do sul", "lat": -31.36, "lon": -51.97 },
  { "name": "São Luiz Gonzaga", "normalizedName": "sao luiz gonzaga", "lat": -28.4, "lon": -54.95 },
  { "name": "São Marcos", "normalizedName": "sao marcos", "lat": -28.97, "lon": -51.06 },
  { "name": "São Martinho", "normalizedName": "sao martinho", "lat": -27.71, "lon": -53.97 },
  { "name": "São Martinho da Serra", "normalizedName": "sao martinho da serra", "lat": -29.54, "lon": -53.86 },
  { "name": "São Miguel das Missões", "normalizedName": "sao miguel das missoes", "lat": -28.54, "lon": -54.55 },
  { "name": "São Nicolau", "normalizedName": "sao nicolau", "lat": -28.18, "lon": -55.26 },
  { "name": "São Paulo das Missões", "normalizedName": "sao paulo das missoes", "lat": -27.91, "lon": -54.94 },
  { "name": "São Pedro da Serra", "normalizedName": "sao pedro da serra", "lat": -29.43, "lon": -51.5 },
  { "name": "São Pedro das Missões", "normalizedName": "sao pedro das missoes", "lat": -27.84, "lon": -53.28 },
  { "name": "São Pedro do Butiá", "normalizedName": "sao pedro do butia", "lat": -28.12, "lon": -54.89 },
  { "name": "São Pedro do Sul", "normalizedName": "sao pedro do sul", "lat": -29.62, "lon": -54.17 },
  { "name": "São Sebastião do Caí", "normalizedName": "sao sebastiao do cai", "lat": -29.58, "lon": -51.37 },
  { "name": "São Sepé", "normalizedName": "sao sepe", "lat": -30.15, "lon": -53.56 },
  { "name": "São Valentim", "normalizedName": "sao valentim", "lat": -27.55, "lon": -52.53 },
  { "name": "São Valentim do Sul", "normalizedName": "sao valentim do sul", "lat": -29.05, "lon": -51.75 },
  { "name": "São Valério do Sul", "normalizedName": "sao valerio do sul", "lat": -27.78, "lon": -53.94 },
  { "name": "São Vendelino", "normalizedName": "sao vendelino", "lat": -29.36, "lon": -51.37 },
  { "name": "São Vicente do Sul", "normalizedName": "sao vicente do sul", "lat": -29.68, "lon": -54.67 },
  { "name": "Sapiranga", "normalizedName": "sapiranga", "lat": -29.63, "lon": -51 },
  { "name": "Sapucaia do Sul", "normalizedName": "sapucaia do sul", "lat": -29.83, "lon": -51.14 },
  { "name": "Sarandi", "normalizedName": "sarandi", "lat": -27.94, "lon": -52.92 },
  { "name": "Seberi", "normalizedName": "seberi", "lat": -27.48, "lon": -53.4 },
  { "name": "Sede Nova", "normalizedName": "sede nova", "lat": -27.6, "lon": -53.95 },
  { "name": "Segredo", "normalizedName": "segredo", "lat": -29.28, "lon": -53.03 },
  { "name": "Selbach", "normalizedName": "selbach", "lat": -28.63, "lon": -52.94 },
  { "name": "Senador Salgado Filho", "normalizedName": "senador salgado filho", "lat": -27.96, "lon": -54.54 },
  { "name": "Sentinela do Sul", "normalizedName": "sentinela do sul", "lat": -30.6, "lon": -51.62 },
  { "name": "Serafina Corrêa", "normalizedName": "serafina correa", "lat": -28.71, "lon": -51.93 },
  { "name": "Sério", "normalizedName": "serio", "lat": -29.37, "lon": -52.2 },
  { "name": "Sertão", "normalizedName": "sertao", "lat": -27.98, "lon": -52.25 },
  { "name": "Sertão Santana", "normalizedName": "sertao santana", "lat": -30.43, "lon": -51.58 },
  { "name": "Sete de Setembro", "normalizedName": "sete de setembro", "lat": -28.13, "lon": -54.49 },
  { "name": "Severiano de Almeida", "normalizedName": "severiano de almeida", "lat": -27.43, "lon": -52.09 },
  { "name": "Silveira Martins", "normalizedName": "silveira martins", "lat": -29.65, "lon": -53.58 },
  { "name": "Sinimbu", "normalizedName": "sinimbu", "lat": -29.53, "lon": -52.52 },
  { "name": "Sobradinho", "normalizedName": "sobradinho", "lat": -29.41, "lon": -53.02 },
  { "name": "Soledade", "normalizedName": "soledade", "lat": -28.81, "lon": -52.51 },
  { "name": "Tabaí", "normalizedName": "tabai", "lat": -29.64, "lon": -51.68 },
  { "name": "Tapejara", "normalizedName": "tapejara", "lat": -28.06, "lon": -52.01 },
  { "name": "Tapera", "normalizedName": "tapera", "lat": -28.65, "lon": -52.86 },
  { "name": "Tapes", "normalizedName": "tapes", "lat": -30.67, "lon": -51.39 },
  { "name": "Taquara", "normalizedName": "taquara", "lat": -29.65, "lon": -50.78 },
  { "name": "Taquari", "normalizedName": "taquari", "lat": -29.8, "lon": -51.86 },
  { "name": "Taquaruçu do Sul", "normalizedName": "taquarucu do sul", "lat": -27.4, "lon": -53.46 },
  { "name": "Tavares", "normalizedName": "tavares", "lat": -31.28, "lon": -51.09 },
  { "name": "Tenente Portela", "normalizedName": "tenente portela", "lat": -27.37, "lon": -53.75 },
  { "name": "Terra de Areia", "normalizedName": "terra de areia", "lat": -29.58, "lon": -50.06 },
  { "name": "Teutônia", "normalizedName": "teutonia", "lat": -29.44, "lon": -51.8 },
  { "name": "Tio Hugo", "normalizedName": "tio hugo", "lat": -28.58, "lon": -52.61 },
  { "name": "Tiradentes do Sul", "normalizedName": "tiradentes do sul", "lat": -27.37, "lon": -54.08 },
  { "name": "Toropi", "normalizedName": "toropi", "lat": -29.48, "lon": -54.25 },
  { "name": "Torres", "normalizedName": "torres", "lat": -29.33, "lon": -49.72 },
  { "name": "Tramandaí", "normalizedName": "tramandai", "lat": -29.98, "lon": -50.13 },
  { "name": "Travesseiro", "normalizedName": "travesseiro", "lat": -29.28, "lon": -52.09 },
  { "name": "Três Arroios", "normalizedName": "tres arroios", "lat": -27.48, "lon": -52.17 },
  { "name": "Três Cachoeiras", "normalizedName": "tres cachoeiras", "lat": -29.45, "lon": -49.91 },
  { "name": "Três Coroas", "normalizedName": "tres coroas", "lat": -29.51, "lon": -50.77 },
  { "name": "Três de Maio", "normalizedName": "tres de maio", "lat": -27.77, "lon": -54.24 },
  { "name": "Três Forquilhas", "normalizedName": "tres forquilhas", "lat": -29.48, "lon": -50.09 },
  { "name": "Três Palmeiras", "normalizedName": "tres palmeiras", "lat": -27.61, "lon": -52.88 },
  { "name": "Três Passos", "normalizedName": "tres passos", "lat": -27.45, "lon": -53.93 },
  { "name": "Trindade do Sul", "normalizedName": "trindade do sul", "lat": -27.51, "lon": -52.89 },
  { "name": "Triunfo", "normalizedName": "triunfo", "lat": -29.94, "lon": -51.71 },
  { "name": "Tucunduva", "normalizedName": "tucunduva", "lat": -27.65, "lon": -54.44 },
  { "name": "Tunas", "normalizedName": "tunas", "lat": -29.06, "lon": -53.07 },
  { "name": "Tupanci do Sul", "normalizedName": "tupanci do sul", "lat": -27.91, "lon": -51.75 },
  { "name": "Tupanciretã", "normalizedName": "tupancireta", "lat": -29.08, "lon": -53.83 },
  { "name": "Tupandi", "normalizedName": "tupandi", "lat": -29.47, "lon": -51.42 },
  { "name": "Tuparendi", "normalizedName": "tuparendi", "lat": -27.75, "lon": -54.5 },
  { "name": "Turuçu", "normalizedName": "turucu", "lat": -31.42, "lon": -52.16 },
  { "name": "Ubiretama", "normalizedName": "ubiretama", "lat": -28.02, "lon": -54.67 },
  { "name": "União da Serra", "normalizedName": "uniao da serra", "lat": -28.75, "lon": -52.01 },
  { "name": "Unistalda", "normalizedName": "unistalda", "lat": -29.05, "lon": -55.02 },
  { "name": "Uruguaiana", "normalizedName": "uruguaiana", "lat": -29.75, "lon": -57.08 },
  { "name": "Vacaria", "normalizedName": "vacaria", "lat": -28.51, "lon": -50.93 },
  { "name": "Vale do Sol", "normalizedName": "vale do sol", "lat": -29.61, "lon": -52.68 },
  { "name": "Vale Real", "normalizedName": "vale real", "lat": -29.4, "lon": -51.25 },
  { "name": "Vale Verde", "normalizedName": "vale verde", "lat": -29.79, "lon": -52.18 },
  { "name": "Vanini", "normalizedName": "vanini", "lat": -28.48, "lon": -51.84 },
  { "name": "Venâncio Aires", "normalizedName": "venancio aires", "lat": -29.6, "lon": -52.19 },
  { "name": "Vera Cruz", "normalizedName": "vera cruz", "lat": -29.71, "lon": -52.52 },
  { "name": "Veranópolis", "normalizedName": "veranopolis", "lat": -28.93, "lon": -51.54 },
  { "name": "Vespasiano Correa", "normalizedName": "vespasiano correa", "lat": -29.06, "lon": -51.88 },
  { "name": "Viadutos", "normalizedName": "viadutos", "lat": -27.57, "lon": -52.02 },
  { "name": "Viamão", "normalizedName": "viamao", "lat": -30.08, "lon": -51.02 },
  { "name": "Vicente Dutra", "normalizedName": "vicente dutra", "lat": -27.16, "lon": -53.4 },
  { "name": "Victor Graeff", "normalizedName": "victor graeff", "lat": -28.55, "lon": -52.75 },
  { "name": "Vila Flores", "normalizedName": "vila flores", "lat": -28.87, "lon": -51.58 },
  { "name": "Vila Lângaro", "normalizedName": "vila langaro", "lat": -28.1, "lon": -52.16 },
  { "name": "Vila Maria", "normalizedName": "vila maria", "lat": -28.53, "lon": -52.15 },
  { "name": "Vila Nova do Sul", "normalizedName": "vila nova do sul", "lat": -30.34, "lon": -53.88 },
  { "name": "Vista Alegre", "normalizedName": "vista alegre", "lat": -27.3, "lon": -53.51 },
  { "name": "Vista Alegre do Prata", "normalizedName": "vista alegre do prata", "lat": -28.8, "lon": -51.79 },
  { "name": "Vista Gaúcha", "normalizedName": "vista gaucha", "lat": -27.3, "lon": -53.69 },
  { "name": "Vitória das Missões", "normalizedName": "vitoria das missoes", "lat": -28.36, "lon": -54.49 },
  { "name": "Westfália", "normalizedName": "westfalia", "lat": -29.41, "lon": -51.77 },
  { "name": "Xangri-lá", "normalizedName": "xangri-la", "lat": -29.8, "lon": -50.05 }
]
